RegionName,Ciudad,Estado,Precio_Actual,Clasificacion,Confianza_%,Crecimiento_2025_%,Asequibilidad,Vacancia_%,Impulso_Mercado_%,Latitude,Longitude
60085,Waukegan,IL,215506,Alto Potencial,100.0,10.6,2.7,1.7,2.2,42.3542,-87.8651
6010,Bristol,CT,320877,Alto Potencial,100.0,8.3,3.1,3.2,0.1,,
53081,Sheboygan,WI,228348,Alto Potencial,100.0,10.5,2.9,2.4,2.4,43.741,-87.7247
14609,Rochester,NY,192497,Alto Potencial,100.0,10.7,2.5,4.0,0.3,43.174,-77.5637
53204,Milwaukee,WI,146736,Alto Potencial,100.0,17.9,2.6,2.8,3.1,43.0158,-87.9317
60901,Kankakee,IL,151922,Alto Potencial,100.0,10.4,2.3,7.1,3.6,41.1166,-87.8696
60451,New Lenox,IL,423860,Alto Potencial,100.0,9.1,2.6,1.2,2.2,41.5067,-87.9631
44601,Alliance,OH,152346,Alto Potencial,100.0,8.5,2.1,4.3,1.7,40.9158,-81.1182
61108,Rockford,IL,167919,Alto Potencial,100.0,10.4,2.2,2.6,1.2,42.2514,-89.0235
6066,Vernon Rockville,CT,319394,Alto Potencial,100.0,8.7,3.3,2.8,0.1,,
53223,Milwaukee,WI,214708,Alto Potencial,100.0,10.6,2.9,4.3,1.1,43.1624,-87.9898
61107,Rockford,IL,199161,Alto Potencial,100.0,10.1,2.2,3.4,0.1,42.2786,-89.0361
61604,Peoria,IL,100057,Alto Potencial,100.0,8.7,1.7,5.0,0.3,40.7111,-89.6324
54304,Green Bay,WI,270427,Alto Potencial,100.0,11.1,3.7,1.8,1.2,44.4975,-88.0324
54494,Wisconsin Rapids,WI,211056,Alto Potencial,100.0,9.5,2.5,4.8,-0.1,44.3758,-89.8062
53403,Racine,WI,200199,Alto Potencial,100.0,9.9,2.8,4.9,1.8,42.706,-87.8014
54303,Green Bay,WI,226348,Alto Potencial,100.0,11.5,3.2,2.5,0.2,44.5522,-88.0788
8105,Camden,NJ,168255,Alto Potencial,100.0,13.3,2.7,1.7,5.8,,
61109,Rockford,IL,169590,Alto Potencial,100.0,10.7,2.2,3.0,-0.2,42.2166,-89.0512
6320,New London,CT,288569,Alto Potencial,100.0,12.1,3.8,3.5,1.2,,
14623,Rochester,NY,243663,Alto Potencial,100.0,10.2,3.3,2.9,0.0,43.0834,-77.6344
14618,Rochester,NY,376852,Alto Potencial,100.0,8.3,2.5,1.6,-0.2,43.1122,-77.5618
14616,Rochester,NY,199557,Alto Potencial,100.0,8.9,2.7,2.8,0.0,43.2346,-77.6577
61103,Rockford,IL,136891,Alto Potencial,100.0,11.1,2.2,5.3,2.2,42.301,-89.0833
13208,Syracuse,NY,157370,Alto Potencial,100.0,13.6,3.0,5.0,2.9,43.073,-76.1486
44306,Akron,OH,86601,Alto Potencial,100.0,10.3,1.7,5.9,2.1,41.0479,-81.4916
40211,Louisville,KY,91210,Alto Potencial,100.0,12.0,2.3,11.3,2.3,38.242,-85.8127
6002,Bloomfield,CT,333932,Alto Potencial,100.0,8.9,2.8,2.6,0.4,,
13212,North Syracuse,NY,221230,Alto Potencial,100.0,10.4,2.4,2.2,2.5,43.1226,-76.1284
61115,Machesney Park,IL,183167,Alto Potencial,100.0,9.5,2.0,2.5,2.0,42.3545,-89.0397
6067,Rocky Hill,CT,373192,Alto Potencial,100.0,8.0,3.1,1.8,0.4,,
48213,Detroit,MI,51272,Alto Potencial,100.0,14.0,1.2,19.3,2.3,42.3982,-82.9925
13204,Syracuse,NY,139263,Alto Potencial,100.0,12.5,2.6,8.2,2.6,43.0444,-76.1758
53083,Sheboygan,WI,306008,Alto Potencial,100.0,9.8,3.2,1.8,1.7,43.8176,-87.766
19801,Wilmington,DE,164873,Alto Potencial,100.0,9.9,3.0,8.3,1.0,39.7378,-75.5497
61102,Rockford,IL,105612,Alto Potencial,100.0,13.9,1.8,5.9,8.5,42.2547,-89.1247
8840,Metuchen,NJ,651360,Alto Potencial,100.0,12.9,3.4,1.2,4.3,,
6062,Plainville,CT,316834,Alto Potencial,100.0,7.7,3.2,2.5,0.9,,
13206,Syracuse,NY,182284,Alto Potencial,100.0,11.1,2.5,3.8,2.6,43.0677,-76.1102
13031,Camillus,NY,278583,Alto Potencial,100.0,10.0,2.5,1.9,0.1,43.0417,-76.2807
13057,East Syracuse,NY,234724,Alto Potencial,100.0,10.9,2.4,1.7,1.8,43.0734,-76.0558
16503,Erie,PA,62535,Alto Potencial,100.0,9.6,1.7,4.9,6.3,42.1265,-80.064
44706,Canton,OH,146562,Alto Potencial,100.0,9.7,2.2,5.2,4.4,40.768,-81.4119
13219,Syracuse,NY,235723,Alto Potencial,100.0,9.7,2.4,1.8,1.1,43.0409,-76.2262
16502,Erie,PA,119161,Alto Potencial,100.0,9.8,2.8,5.8,0.1,42.1133,-80.0976
13215,Syracuse,NY,348069,Alto Potencial,100.0,9.0,2.6,2.4,0.5,42.9722,-76.2276
14622,Rochester,NY,222317,Alto Potencial,100.0,9.4,2.5,1.6,-0.4,43.214,-77.5555
53404,Racine,WI,178136,Alto Potencial,100.0,11.5,3.0,3.6,2.2,42.7433,-87.8053
13207,Syracuse,NY,165839,Alto Potencial,100.0,11.0,2.3,5.5,0.5,43.0195,-76.165
13032,Canastota,NY,212640,Alto Potencial,100.0,11.7,2.4,7.6,-0.2,43.0878,-75.7602
61071,Rock Falls,IL,109783,Alto Potencial,100.0,10.5,1.6,5.7,4.1,41.7665,-89.6925
40210,Louisville,KY,82876,Alto Potencial,100.0,16.6,1.8,10.2,5.5,38.2306,-85.7905
13041,Clay,NY,283718,Alto Potencial,100.0,8.8,2.2,1.0,-0.6,43.1737,-76.1707
18705,Wilkes-Barre,PA,171021,Alto Potencial,100.0,10.7,2.2,6.6,-0.4,41.2689,-75.8453
13209,Syracuse,NY,216548,Alto Potencial,100.0,10.7,2.6,3.8,1.6,43.0847,-76.2405
14467,Henrietta,NY,284531,Alto Potencial,100.0,10.3,2.7,0.7,-0.2,43.0483,-77.6122
73601,Clinton,OK,105195,Alto Potencial,100.0,10.0,1.5,8.8,2.7,35.5115,-98.9795
13224,Syracuse,NY,253307,Alto Potencial,100.0,11.5,2.5,3.7,2.7,43.0421,-76.1046
17931,Frackville,PA,135495,Alto Potencial,100.0,15.4,1.9,3.9,4.4,40.7825,-76.2311
25702,Huntington,WV,91187,Alto Potencial,100.0,20.8,1.9,10.5,15.3,38.4286,-82.3911
13214,Syracuse,NY,279076,Alto Potencial,100.0,10.4,2.4,4.2,2.0,43.0397,-76.0722
13029,Brewerton,NY,306907,Alto Potencial,100.0,10.0,2.5,4.5,-0.4,43.2252,-76.1351
14489,Lyons,NY,156777,Alto Potencial,100.0,12.4,1.9,5.6,2.3,43.0777,-76.9896
14589,Williamson,NY,239596,Alto Potencial,100.0,9.4,2.4,3.8,0.3,43.2421,-77.17
6016,Broad Brook,CT,368238,Alto Potencial,100.0,8.0,2.6,2.3,-0.2,,
14546,Scottsville,NY,253915,Alto Potencial,100.0,9.4,2.6,5.1,-1.0,43.0246,-77.7743
24228,Clintwood,VA,108728,Alto Potencial,100.0,9.9,2.2,10.3,-0.7,37.1592,-82.4453
7416,Franklin,NJ,369921,Alto Potencial,100.0,9.4,3.3,3.9,0.5,,
44902,Mansfield,OH,66042,Alto Potencial,100.0,14.9,1.7,8.9,0.2,40.7559,-82.5123
13135,Phoenix,NY,227172,Alto Potencial,100.0,9.5,2.3,3.3,1.0,43.2468,-76.3064
61616,Peoria Heights,IL,108503,Alto Potencial,100.0,9.6,1.4,4.9,2.3,40.7473,-89.574
60472,Robbins,IL,109831,Alto Potencial,100.0,11.6,2.4,9.2,-1.1,41.6423,-87.7089
62363,Pittsfield,IL,121927,Alto Potencial,100.0,14.3,1.8,8.2,8.2,39.6013,-90.8073
18452,Peckville,PA,215006,Alto Potencial,100.0,15.0,3.0,5.1,1.4,41.4821,-75.5899
42256,Lewisburg,KY,203695,Alto Potencial,100.0,8.2,3.0,17.4,-0.1,37.0037,-86.9887
6365,Preston,CT,388287,Alto Potencial,100.0,9.9,2.9,4.2,1.5,,
61088,Winnebago,IL,259045,Alto Potencial,100.0,9.0,2.3,1.0,-0.5,42.2727,-89.2373
13074,Hannibal,NY,185371,Alto Potencial,100.0,10.4,2.1,4.3,2.7,43.3111,-76.546
25015,Belle,WV,115786,Alto Potencial,100.0,8.3,2.0,9.4,1.3,38.2324,-81.5024
40051,New Haven,KY,188444,Alto Potencial,100.0,9.0,2.3,8.8,1.9,37.6438,-85.547
14423,Caledonia,NY,229833,Alto Potencial,100.0,9.3,2.4,2.5,-0.2,42.9567,-77.8493
42327,Calhoun,KY,178937,Alto Potencial,100.0,10.6,2.3,4.7,-1.4,37.575,-87.2773
53103,Vernon,WI,460708,Alto Potencial,100.0,9.1,2.9,1.5,3.8,42.8885,-88.2122
47512,Bicknell,IN,98504,Alto Potencial,100.0,15.7,1.2,4.9,9.2,38.7727,-87.3137
44672,Sebring,OH,113578,Alto Potencial,100.0,13.6,1.8,8.5,2.6,40.9227,-81.0232
26175,Sistersville,WV,108597,Alto Potencial,100.0,9.2,1.5,7.0,2.7,39.5584,-80.9818
23950,Brodnax,VA,175227,Alto Potencial,100.0,10.2,3.2,8.4,1.7,36.6613,-78.0754
13033,Cato,NY,218940,Alto Potencial,100.0,9.3,2.2,4.2,2.0,43.1794,-76.5648
69201,Valentine,NE,228839,Alto Potencial,100.0,12.5,3.4,11.5,0.1,42.8062,-100.6215
6330,Sprague,CT,342392,Alto Potencial,100.0,9.8,3.1,3.8,0.1,,
54107,Bonduel,WI,273104,Alto Potencial,100.0,9.7,3.0,4.6,0.1,44.6992,-88.4543
61024,Durand,IL,203276,Alto Potencial,100.0,11.4,2.2,4.3,6.0,42.4337,-89.3094
67467,Minneapolis,KS,156757,Alto Potencial,100.0,11.4,2.0,3.6,0.1,39.1295,-97.6688
48759,Sebewaing,MI,133488,Alto Potencial,100.0,11.1,1.7,12.3,4.6,43.7289,-83.4366
40313,Clearfield,KY,151046,Alto Potencial,100.0,10.7,2.0,6.8,0.5,38.1287,-83.4425
47841,Clay City,IN,169505,Alto Potencial,100.0,10.4,2.3,5.4,-0.2,39.2727,-87.1082
53516,,WI,320256,Alto Potencial,100.0,9.4,3.2,3.5,-1.0,42.8062,-89.8555
54440,Hatley,WI,254314,Alto Potencial,100.0,11.9,2.5,5.1,3.8,44.8256,-89.3777
27007,Ararat,NC,252116,Alto Potencial,100.0,8.5,2.4,6.5,0.8,36.3859,-80.5895
62939,Goreville,IL,215769,Alto Potencial,100.0,8.4,2.7,14.8,0.1,37.575,-88.9655
45874,Ohio City,OH,171845,Alto Potencial,100.0,10.4,2.2,6.3,1.5,40.7854,-84.6731
61053,Mount Carroll,IL,131172,Alto Potencial,100.0,13.9,1.8,7.3,0.4,42.1053,-89.9845
61956,Villa Grove,IL,124967,Alto Potencial,100.0,12.7,1.5,3.4,1.6,39.8687,-88.1616
54405,Abbotsford,WI,180847,Alto Potencial,100.0,12.3,2.2,2.4,4.9,44.9641,-90.2994
40873,Wallins Creek,KY,83825,Alto Potencial,100.0,11.2,2.2,9.4,3.3,36.8165,-83.419
6235,Chaplin,CT,327459,Alto Potencial,100.0,10.0,2.9,1.7,-0.7,,
13318,Cassville,NY,231581,Alto Potencial,100.0,8.6,2.5,2.7,0.5,42.9069,-75.2607
13111,Martville,NY,177885,Alto Potencial,100.0,10.0,2.4,6.0,6.2,43.2661,-76.6289
66712,Arma,KS,126438,Alto Potencial,100.0,15.8,2.1,5.8,0.7,37.5573,-94.6949
59050,Lodge Grass,MT,163590,Alto Potencial,100.0,15.7,1.6,6.5,7.1,45.3166,-107.3675
1368,Royalston,MA,398335,Alto Potencial,100.0,10.5,3.2,4.9,1.0,,
61014,Chadwick,IL,133590,Alto Potencial,100.0,13.7,1.6,3.3,2.8,41.9962,-89.8963
61078,Shannon,IL,155502,Alto Potencial,100.0,17.5,1.7,7.2,2.4,42.161,-89.7481
62510,Assumption,IL,114729,Alto Potencial,100.0,12.8,1.8,6.1,1.6,39.5095,-89.0398
17965,Port Carbon,PA,123785,Alto Potencial,100.0,12.6,1.7,6.2,2.5,40.6977,-76.166
60921,Chatsworth,IL,91684,Alto Potencial,100.0,17.1,1.1,9.5,7.7,40.7484,-88.2937
61368,Tiskilwa,IL,127728,Alto Potencial,100.0,9.8,1.4,6.6,5.0,41.2891,-89.508
13145,Sandy Creek,NY,174412,Alto Potencial,100.0,12.5,2.9,14.1,2.2,43.6517,-76.1264
47666,Princeton,IN,160435,Alto Potencial,100.0,9.1,2.1,8.9,-0.3,38.4143,-87.5958
27974,Shawboro,NC,307316,Alto Potencial,100.0,9.6,3.2,3.6,0.7,36.2584,-76.0432
61565,,IL,159191,Alto Potencial,100.0,10.6,1.7,4.9,0.8,41.0134,-89.4571
13485,West Edmeston,NY,179391,Alto Potencial,100.0,11.5,2.3,5.6,1.0,42.7868,-75.3149
47142,,IN,223188,Alto Potencial,100.0,9.9,2.1,12.6,1.0,38.0437,-86.1846
74569,Stringtown,OK,214867,Alto Potencial,100.0,12.1,3.2,9.5,2.6,34.4676,-96.0002
25844,Glen Daniel,WV,163120,Alto Potencial,100.0,8.9,1.5,0.0,-0.9,37.8251,-81.3858
43963,Tiltonsville,OH,115339,Alto Potencial,100.0,8.5,1.7,6.7,6.4,40.1681,-80.6996
68944,Harvard,NE,128612,Alto Potencial,100.0,12.8,1.5,5.4,3.9,40.6265,-98.0846
67349,Howard,KS,81725,Alto Potencial,100.0,14.9,1.0,18.3,7.1,37.4809,-96.2563
62985,Simpson,IL,185217,Alto Potencial,100.0,9.7,2.1,19.5,6.9,37.4673,-88.7551
69347,Hay Springs,NE,164659,Alto Potencial,100.0,13.2,1.8,11.1,-1.5,42.6401,-102.6756
13744,Binghamton,NY,193435,Alto Potencial,100.0,8.7,2.6,3.7,-0.1,42.2568,-75.9087
17099,Yeagertown,PA,140475,Alto Potencial,100.0,8.7,1.7,3.8,4.7,40.6431,-77.5805
45317,Conover,OH,206631,Alto Potencial,100.0,9.2,1.7,5.6,2.7,40.1457,-84.0283
63386,West Alton,MO,173619,Alto Potencial,100.0,8.4,1.2,11.9,1.8,38.8758,-90.2384
27946,Hobbsville,NC,226753,Alto Potencial,100.0,18.0,2.6,13.3,0.3,36.3543,-76.6178
69352,Lyman,NE,181855,Alto Potencial,100.0,13.1,2.7,8.3,4.9,41.8918,-104.0066
47516,Bruceville,IN,203275,Alto Potencial,100.0,10.8,2.0,1.5,2.3,38.7563,-87.4313
47528,Edwardsport,IN,134212,Alto Potencial,100.0,12.0,2.1,1.6,2.8,38.8106,-87.2519
54408,Aniwa,WI,220635,Alto Potencial,100.0,10.3,2.4,6.0,6.8,45.0088,-89.3578
13310,Bouckville,NY,196878,Alto Potencial,100.0,11.5,1.7,15.2,0.1,42.894,-75.5678
47524,Decker,IN,126062,Alto Potencial,100.0,12.8,2.0,2.5,4.2,38.5076,-87.5537
67446,Glen Elder,KS,143684,Alto Potencial,100.0,16.5,1.2,16.5,2.8,39.4958,-98.3155
67731,Bird City,KS,148572,Alto Potencial,100.0,24.6,1.8,8.1,5.6,39.7579,-101.5319
31823,Pine Mountain Valley,GA,245808,Alto Potencial,100.0,10.3,2.8,14.9,3.2,32.8226,-84.8204
67764,,KS,123827,Alto Potencial,100.0,18.1,1.8,17.7,2.7,39.061,-101.2216
55713,Buhl,MN,122629,Alto Potencial,100.0,8.2,1.8,5.3,1.2,47.4932,-92.7643
66951,Agra,KS,110381,Alto Potencial,100.0,20.4,1.3,13.7,7.0,39.7692,-99.0308
46175,Russellville,IN,182879,Alto Potencial,100.0,16.2,1.9,10.0,8.3,39.8366,-86.967
29377,Startex,SC,143424,Alto Potencial,100.0,17.6,2.3,10.7,4.8,34.9285,-82.099
43536,Mark Center,OH,154754,Alto Potencial,100.0,13.4,1.3,0.0,7.5,41.2917,-84.6278
64480,Rea,MO,255618,Alto Potencial,100.0,15.4,1.8,8.8,1.0,40.0593,-94.7002
61320,Dalzell,IL,148570,Alto Potencial,100.0,8.5,1.6,1.6,3.3,41.3547,-89.1705
67511,Albert,KS,124506,Alto Potencial,100.0,11.7,2.2,14.8,2.2,38.4528,-99.0115
67657,Palco,KS,127410,Alto Potencial,100.0,11.5,1.7,26.1,2.0,39.2531,-99.5593
67656,Ogallah,KS,140643,Alto Potencial,100.0,22.9,1.6,10.4,-2.1,38.9914,-99.7323
46537,La Paz,IN,147017,Alto Potencial,100.0,11.7,2.0,7.3,2.0,41.4599,-86.3102
47382,Saratoga,IN,69527,Alto Potencial,100.0,12.5,0.9,8.5,0.8,40.2347,-84.9185
82732,Wright,WY,280275,Alto Potencial,100.0,12.6,2.5,19.1,4.6,43.7512,-105.492
15937,Jerome,PA,78292,Alto Potencial,100.0,19.1,1.1,12.8,4.0,40.2084,-78.9873
14592,York,NY,187430,Alto Potencial,100.0,9.6,2.2,9.2,0.3,42.8757,-77.8835
8854,Piscataway,NJ,568084,Alto Potencial,99.9,10.8,3.7,1.2,3.1,,
60505,Aurora,IL,232577,Alto Potencial,99.9,9.3,2.7,2.3,0.1,41.7582,-88.2971
53215,Milwaukee,WI,208916,Alto Potencial,99.9,11.7,3.5,3.2,1.5,43.006,-87.9429
40601,Frankfort,KY,236232,Alto Potencial,99.9,10.0,3.0,3.0,-0.5,38.2281,-84.8697
53511,Beloit,WI,194201,Alto Potencial,99.9,7.6,2.5,2.5,-0.8,42.562,-89.086
44646,Massillon,OH,210152,Alto Potencial,99.9,7.7,2.7,2.3,0.2,40.8116,-81.4973
8844,Hillsborough Township,NJ,672112,Alto Potencial,99.9,9.1,3.6,0.6,2.2,,
13760,Endicott,NY,193019,Alto Potencial,99.9,8.2,2.6,3.8,-1.5,42.1506,-76.0551
8902,North Brunswick,NJ,523791,Alto Potencial,99.9,11.1,3.7,0.8,1.0,,
61554,Pekin,IL,124771,Alto Potencial,99.9,7.9,1.7,3.7,1.9,40.5674,-89.6243
44870,Sandusky,OH,176780,Alto Potencial,99.9,9.4,2.6,7.7,-1.6,41.4349,-82.7063
14624,Rochester,NY,250038,Alto Potencial,99.9,8.9,2.4,1.1,-1.7,43.1216,-77.7311
6040,Manchester,CT,318743,Alto Potencial,99.9,7.1,3.1,2.4,0.2,,
13126,Oswego,NY,179727,Alto Potencial,99.9,10.0,2.3,5.7,1.5,43.4394,-76.4613
53219,Milwaukee,WI,254921,Alto Potencial,99.9,7.7,3.0,2.0,-0.6,42.9959,-87.9944
61008,Belvidere,IL,240422,Alto Potencial,99.9,8.7,2.7,1.7,-1.8,42.2595,-88.8509
14621,Rochester,NY,109020,Alto Potencial,99.9,13.8,2.4,5.8,7.0,43.1834,-77.6043
60139,Glendale Heights,IL,299539,Alto Potencial,99.9,7.5,3.1,1.3,1.4,41.9205,-88.0793
7110,Nutley,NJ,623782,Alto Potencial,99.9,9.1,4.5,1.4,2.8,,
13850,Vestal,NY,237464,Alto Potencial,99.9,8.6,2.4,4.4,-1.7,42.0771,-76.0118
11803,Plainview,NY,903238,Alto Potencial,99.9,8.5,4.2,1.6,1.3,40.7781,-73.4816
53140,Kenosha,WI,234351,Alto Potencial,99.9,9.2,3.5,3.8,2.1,42.6052,-87.8299
6095,Windsor,CT,339454,Alto Potencial,99.9,8.3,2.6,1.9,0.3,,
7621,Bergenfield,NJ,599515,Alto Potencial,99.9,8.9,4.1,0.9,2.5,,
7920,Basking Ridge,NJ,881185,Alto Potencial,99.9,9.7,3.9,1.1,2.9,,
53405,Racine,WI,211334,Alto Potencial,99.9,8.7,2.6,1.7,0.5,42.7161,-87.8233
7450,Ridgewood,NJ,1095776,Alto Potencial,99.9,10.2,4.2,1.3,1.6,,
7076,Scotch Plains,NJ,776779,Alto Potencial,99.9,8.8,3.7,1.2,3.4,,
6108,East Hartford,CT,271117,Alto Potencial,99.9,9.0,3.9,1.9,-0.2,,
17901,Pottsville,PA,141853,Alto Potencial,99.9,8.5,1.9,6.1,0.5,40.684,-76.2123
45356,Piqua,OH,172319,Alto Potencial,99.9,8.0,2.2,2.8,-0.4,40.1486,-84.2531
6451,Meriden,CT,307553,Alto Potencial,99.9,10.1,3.7,3.8,-0.8,,
13069,Fulton,NY,173224,Alto Potencial,99.9,9.8,2.3,3.3,0.4,43.3211,-76.4034
53143,Kenosha,WI,235260,Alto Potencial,99.9,8.5,3.0,3.9,1.4,42.5617,-87.8301
53545,Janesville,WI,260568,Alto Potencial,99.9,8.9,3.2,1.7,-1.3,42.7355,-89.0405
11501,Mineola,NY,773351,Alto Potencial,99.9,9.8,4.8,1.8,2.6,40.7469,-73.6398
8879,South Amboy,NJ,504103,Alto Potencial,99.9,9.7,4.3,2.2,2.2,,
7866,Rockaway,NJ,544735,Alto Potencial,99.9,9.0,3.7,0.8,1.3,,
53548,Janesville,WI,257995,Alto Potencial,99.9,8.4,2.9,2.2,-0.1,42.6854,-89.1287
13088,Liverpool,NY,243055,Alto Potencial,99.9,9.7,2.7,2.0,-0.1,43.1099,-76.187
25705,Huntington,WV,164098,Alto Potencial,99.9,12.5,2.3,4.6,1.2,38.4096,-82.369
18505,Scranton,PA,173651,Alto Potencial,99.9,13.8,2.6,6.8,-0.8,41.3914,-75.6657
14468,Hilton,NY,285159,Alto Potencial,99.9,8.7,2.5,1.4,-0.7,43.2923,-77.7905
45505,Springfield,OH,122455,Alto Potencial,99.9,13.1,2.3,6.0,-0.6,39.9106,-83.7856
61104,Rockford,IL,92472,Alto Potencial,99.9,15.2,2.1,8.5,7.9,42.2554,-89.0768
8837,Edison,NJ,518286,Alto Potencial,99.9,11.6,3.9,1.6,3.1,,
13790,Johnson City,NY,151267,Alto Potencial,99.9,10.4,2.3,6.4,-1.5,42.1267,-75.9685
44320,Akron,OH,110492,Alto Potencial,99.9,10.5,2.4,5.2,-0.8,41.0835,-81.5674
54455,Mosinee,WI,293097,Alto Potencial,99.9,8.3,2.6,1.8,1.3,44.7997,-89.6845
44647,Massillon,OH,179504,Alto Potencial,99.9,8.3,2.3,2.9,2.6,40.7959,-81.5533
8536,Plainsboro,NJ,643070,Alto Potencial,99.9,10.8,4.0,1.6,2.5,,
54476,Weston,WI,260188,Alto Potencial,99.9,7.7,2.9,1.6,0.9,44.9064,-89.5818
7067,Colonia,NJ,614393,Alto Potencial,99.9,10.4,3.9,0.3,-0.1,,
43311,Bellefontaine,OH,231571,Alto Potencial,99.9,8.8,3.1,3.8,3.2,40.3605,-83.7571
54166,Shawano,WI,227493,Alto Potencial,99.9,8.7,2.9,9.6,-0.9,44.7851,-88.6036
8830,Iselin,NJ,538303,Alto Potencial,99.9,11.4,3.9,1.4,2.6,,
60436,Rockdale,IL,214943,Alto Potencial,99.9,9.1,2.9,2.9,-0.7,41.4884,-88.1572
7628,Dumont,NJ,626477,Alto Potencial,99.9,8.7,4.2,1.6,2.6,,
14615,Rochester,NY,177431,Alto Potencial,99.9,9.0,2.8,2.1,-0.1,43.2058,-77.6521
14559,Spencerport,NY,295024,Alto Potencial,99.9,8.9,2.7,1.6,-1.1,43.1895,-77.8043
13039,Cicero,NY,313161,Alto Potencial,99.9,8.7,2.4,2.4,-2.0,43.1707,-76.0962
7834,Denville,NJ,635009,Alto Potencial,99.9,8.0,3.3,2.4,2.2,,
40212,Louisville,KY,83200,Alto Potencial,99.9,12.6,1.8,10.6,8.1,38.2651,-85.8045
60433,Joliet,IL,203893,Alto Potencial,99.9,9.0,2.8,3.4,0.1,41.5119,-88.0569
8882,South River,NJ,514420,Alto Potencial,99.9,11.1,4.2,1.4,1.6,,
45320,Eaton,OH,235439,Alto Potencial,99.9,7.2,2.9,3.4,-0.5,39.7426,-84.6508
45891,Van Wert,OH,171927,Alto Potencial,99.9,8.1,2.3,2.7,-1.0,40.8689,-84.5904
53901,Portage,WI,268774,Alto Potencial,99.9,8.6,3.1,4.2,-0.1,43.5501,-89.4714
44905,Mansfield,OH,140685,Alto Potencial,99.9,8.7,2.1,2.8,-1.7,40.7779,-82.4613
26241,Elkins,WV,169048,Alto Potencial,99.9,8.6,2.8,8.2,0.6,38.9253,-79.8471
7044,Verona,NJ,706671,Alto Potencial,99.9,9.3,3.7,1.1,3.3,,
25504,Barboursville,WV,199262,Alto Potencial,99.9,12.1,2.8,5.4,2.6,38.3893,-82.296
60064,North Chicago,IL,195460,Alto Potencial,99.9,13.6,3.1,4.1,4.2,42.3247,-87.8564
61866,Rantoul,IL,129041,Alto Potencial,99.9,8.2,2.1,6.1,1.7,40.3107,-88.1462
16146,Sharon,PA,68426,Alto Potencial,99.9,18.9,1.3,7.7,5.0,41.2316,-80.4993
15668,Murrysville,PA,332532,Alto Potencial,99.9,9.1,2.3,1.5,-0.4,40.4467,-79.6842
8863,Fords,NJ,503941,Alto Potencial,99.9,12.0,3.5,0.6,4.2,,
10530,Hartsdale,NY,675090,Alto Potencial,99.9,8.1,4.8,2.2,3.2,41.0197,-73.8074
44811,Bellevue,OH,179052,Alto Potencial,99.9,7.8,2.4,3.1,-0.4,41.2684,-82.8577
7974,New Providence,NJ,925741,Alto Potencial,99.9,8.4,4.6,2.3,1.4,,
10803,Pelham,NY,1212292,Alto Potencial,99.9,9.2,4.8,0.9,0.4,40.9045,-73.8073
45506,Springfield,OH,114193,Alto Potencial,99.9,15.7,2.2,6.8,3.5,39.9104,-83.8275
7009,Cedar Grove,NJ,718498,Alto Potencial,99.9,9.3,4.1,1.0,1.6,,
8824,Kendall Park,NJ,709926,Alto Potencial,99.9,10.3,3.3,0.8,0.0,,
24426,Covington,VA,147435,Alto Potencial,99.9,9.5,2.4,10.0,-1.0,37.7802,-79.987
54961,New London,WI,262508,Alto Potencial,99.9,8.5,3.1,2.6,-0.9,44.3928,-88.7554
13066,Fayetteville,NY,363010,Alto Potencial,99.9,8.5,2.5,4.1,-0.6,43.0268,-76.0145
64772,Nevada,MO,148799,Alto Potencial,99.9,7.8,2.2,4.8,-1.5,37.8409,-94.3571
14586,West Henrietta,NY,339600,Alto Potencial,99.9,9.1,2.3,2.4,-2.2,43.0397,-77.6871
13421,Oneida,NY,197210,Alto Potencial,99.9,9.7,2.6,3.0,0.8,43.0862,-75.6508
7452,Glen Rock,NJ,956625,Alto Potencial,99.9,8.7,3.8,0.6,1.7,,
61356,Princeton,IL,170372,Alto Potencial,99.9,9.5,2.2,4.6,2.5,41.3629,-89.427
14519,Ontario,NY,319760,Alto Potencial,99.9,8.0,2.9,1.6,-0.8,43.2291,-77.3088
16511,Erie,PA,184802,Alto Potencial,99.9,9.4,2.2,2.5,-0.9,42.1553,-80.0177
42345,Greenville,KY,148380,Alto Potencial,99.9,10.8,1.8,3.8,2.9,37.2076,-87.1806
61523,Chillicothe,IL,166495,Alto Potencial,99.9,9.5,1.9,3.4,1.4,40.9013,-89.5068
6382,Montville,CT,320306,Alto Potencial,99.9,7.5,3.1,2.2,0.3,,
8835,Manville,NJ,465142,Alto Potencial,99.9,8.9,4.1,2.2,0.7,,
64503,Saint Joseph,MO,157348,Alto Potencial,99.9,10.4,2.6,6.5,-0.5,39.734,-94.8171
6239,Killingly,CT,330289,Alto Potencial,99.9,10.6,3.4,1.8,-0.3,,
7843,Hopatcong,NJ,415719,Alto Potencial,99.9,9.2,3.1,4.0,0.2,,
14625,Rochester,NY,347047,Alto Potencial,99.9,8.0,2.7,3.0,-1.5,43.1522,-77.5057
54162,Pulaski,WI,349092,Alto Potencial,99.9,10.5,3.7,0.8,-0.6,44.6611,-88.2634
14428,Churchville,NY,307574,Alto Potencial,99.9,7.9,3.0,2.3,-1.8,43.0749,-77.835
44714,Canton,OH,146968,Alto Potencial,99.9,9.7,2.2,3.0,-0.8,40.8272,-81.361
61080,South Beloit,IL,215576,Alto Potencial,99.9,8.5,2.3,1.9,-1.5,42.4837,-89.0298
7642,Hillsdale,NJ,772402,Alto Potencial,99.9,9.6,3.9,0.9,3.0,,
7034,Lake Hiawatha,NJ,505845,Alto Potencial,99.9,9.0,4.2,1.0,3.2,,
44502,Youngstown,OH,54001,Alto Potencial,99.9,18.3,1.3,8.2,-1.6,41.0774,-80.6409
54615,Black River Falls,WI,216047,Alto Potencial,99.9,9.5,3.0,4.8,-0.5,44.2954,-90.8313
40118,Louisville,KY,191633,Alto Potencial,99.9,9.7,3.1,3.9,3.0,38.1087,-85.7549
25840,Fayetteville,WV,192085,Alto Potencial,99.9,10.1,2.5,3.6,3.9,38.064,-81.0943
54929,Clintonville,WI,218057,Alto Potencial,99.9,9.1,3.0,7.0,0.5,44.6364,-88.743
6374,Plainfield,CT,328373,Alto Potencial,99.9,8.6,3.9,1.3,0.2,,
18447,Olyphant,PA,215695,Alto Potencial,99.9,14.3,2.8,3.5,2.1,41.4677,-75.6015
7603,Bogota,NJ,569587,Alto Potencial,99.9,12.0,4.4,0.9,4.3,,
14482,Le Roy,NY,212861,Alto Potencial,99.9,8.6,2.4,2.2,-2.2,42.9774,-77.9851
44707,Canton,OH,96798,Alto Potencial,99.9,13.0,2.1,8.5,4.8,40.7598,-81.35
25541,Milton,WV,209179,Alto Potencial,99.9,9.1,3.0,6.4,-0.1,38.414,-82.1458
18518,Old Forge,PA,203830,Alto Potencial,99.9,13.0,2.2,2.3,4.4,41.3701,-75.7391
25550,Point Pleasant,WV,155915,Alto Potencial,99.9,12.1,2.7,6.3,-1.6,38.8632,-82.1132
61606,Peoria,IL,114032,Alto Potencial,99.9,7.6,2.3,5.7,3.0,40.6989,-89.6122
44405,Campbell,OH,94258,Alto Potencial,99.9,14.8,1.7,4.8,0.1,41.0778,-80.5897
26170,Saint Marys,WV,158412,Alto Potencial,99.9,11.5,2.3,7.1,0.5,39.386,-81.1725
41097,Williamstown,KY,252659,Alto Potencial,99.9,8.5,3.1,5.9,-0.8,38.6292,-84.5744
7462,Vernon,NJ,300405,Alto Potencial,99.9,8.1,2.4,6.0,1.6,,
15062,Monessen,PA,77717,Alto Potencial,99.9,15.1,1.2,12.2,-0.6,40.1524,-79.8835
6035,Granby,CT,413221,Alto Potencial,99.9,7.7,3.1,0.7,-0.2,,
6779,Watertown,CT,320473,Alto Potencial,99.9,8.6,3.0,3.4,-0.9,,
13114,Mexico,NY,210121,Alto Potencial,99.9,11.7,2.4,5.7,1.8,43.4605,-76.2446
18507,Moosic,PA,237671,Alto Potencial,99.9,11.4,2.6,3.9,2.8,41.3554,-75.6805
29003,Bamberg,SC,153491,Alto Potencial,99.9,9.1,2.7,11.8,1.1,33.2779,-81.0177
7850,Landing,NJ,502569,Alto Potencial,99.9,10.4,4.1,1.9,2.6,,
14464,Hamlin,NY,233602,Alto Potencial,99.9,8.1,2.6,3.8,0.1,43.3076,-77.927
14510,Mount Morris,NY,154597,Alto Potencial,99.9,12.6,2.1,5.2,-0.4,42.6835,-77.8664
11980,Yaphank,NY,518466,Alto Potencial,99.9,8.3,4.1,1.0,1.0,40.837,-72.9174
43526,Hicksville,OH,169850,Alto Potencial,99.9,8.0,2.2,1.0,-0.3,41.3034,-84.7589
45308,Bradford,OH,195735,Alto Potencial,99.9,8.2,2.4,1.7,-0.2,40.1286,-84.4293
43357,West Liberty,OH,286503,Alto Potencial,99.9,8.4,2.9,2.7,-0.2,40.2625,-83.7528
14867,Newfield,NY,265535,Alto Potencial,99.9,8.1,3.3,3.5,-1.0,42.3621,-76.592
7662,Rochelle Park,NJ,605394,Alto Potencial,99.9,9.7,4.3,1.2,2.0,,
43938,Mingo Junction,OH,87243,Alto Potencial,99.9,8.7,1.3,7.7,4.1,40.3203,-80.625
54739,Elk Mound,WI,349800,Alto Potencial,99.9,8.2,3.3,1.4,-0.1,44.867,-91.6752
45345,,OH,177995,Alto Potencial,99.9,8.4,2.0,1.7,-0.3,39.7398,-84.3956
67550,Larned,KS,96061,Alto Potencial,99.9,12.9,1.2,8.6,-1.8,38.1946,-99.101
14505,Marion,NY,232408,Alto Potencial,99.9,9.0,2.3,2.1,0.5,43.1546,-77.1863
13159,Tully,NY,290044,Alto Potencial,99.9,7.9,2.6,4.1,0.6,42.807,-76.1394
14433,Clyde,NY,154069,Alto Potencial,99.9,12.7,1.8,3.3,11.0,43.0855,-76.8725
7718,Belford,NJ,585897,Alto Potencial,99.9,8.9,3.5,0.5,0.2,,
6237,Columbia,CT,399266,Alto Potencial,99.9,7.4,2.7,1.8,0.1,,
25510,Culloden,WV,209572,Alto Potencial,99.9,10.0,2.3,2.3,0.4,38.4198,-82.069
44430,Leavittsburg,OH,103619,Alto Potencial,99.9,10.8,1.6,3.2,-3.4,41.2445,-80.8869
13803,Marathon,NY,182934,Alto Potencial,99.9,8.0,2.5,5.3,-0.5,42.4527,-76.0395
6088,East Windsor,CT,294568,Alto Potencial,99.9,7.4,2.9,4.3,0.1,,
17048,Lykens,PA,146859,Alto Potencial,99.9,10.3,1.7,5.1,2.0,40.5909,-76.7074
54479,Spencer,WI,208900,Alto Potencial,99.9,7.7,2.3,1.8,0.1,44.7391,-90.3114
7422,Highland Lake,NJ,386786,Alto Potencial,99.9,8.1,2.9,7.7,-0.7,,
44127,Cleveland,OH,57084,Alto Potencial,99.9,13.4,1.4,8.1,-1.2,41.4701,-81.649
61074,Savanna,IL,82391,Alto Potencial,99.9,13.6,1.5,7.6,-1.2,42.0956,-90.1401
6278,Ashford,CT,370619,Alto Potencial,99.9,7.5,2.4,5.5,-0.2,,
47874,Rosedale,IN,169940,Alto Potencial,99.9,10.2,2.5,6.1,-1.6,39.6239,-87.3086
47944,Fowler,IN,194487,Alto Potencial,99.9,10.2,3.0,4.6,-1.8,40.6255,-87.309
63673,Saint Mary,MO,237216,Alto Potencial,99.9,9.8,2.7,7.9,-1.4,37.8325,-89.977
44304,Akron,OH,93667,Alto Potencial,99.9,10.4,2.1,10.4,9.0,41.0814,-81.519
13080,Jordan,NY,213328,Alto Potencial,99.9,8.2,2.3,10.0,0.2,43.0651,-76.4598
53956,Randolph,WI,267182,Alto Potencial,99.9,9.2,2.7,5.7,-0.9,43.5397,-89.003
42217,Crofton,KY,245365,Alto Potencial,99.9,13.3,3.3,5.3,0.2,37.0344,-87.4891
51023,Hawarden,IA,178368,Alto Potencial,99.9,10.3,2.1,3.3,-2.0,43.0013,-96.473
14733,Falconer,NY,126062,Alto Potencial,99.9,9.5,1.9,6.7,0.3,42.1239,-79.1895
54970,Redgranite,WI,186690,Alto Potencial,99.9,10.5,2.5,10.0,-0.2,44.0438,-89.0981
58523,Beulah,ND,237506,Alto Potencial,99.9,11.2,2.4,15.2,5.7,47.2707,-101.8075
54414,Birnamwood,WI,233868,Alto Potencial,99.9,11.5,2.5,4.9,6.4,44.9269,-89.2124
13748,Conklin,NY,179001,Alto Potencial,99.9,7.6,2.2,4.3,0.1,42.0454,-75.8076
7077,Sewaren,NJ,505334,Alto Potencial,99.9,11.1,3.9,1.4,1.9,,
6280,Windham,CT,317198,Alto Potencial,99.9,9.6,3.7,0.1,-0.1,,
47305,Muncie,IN,77604,Alto Potencial,99.9,16.5,1.9,18.7,2.3,40.1933,-85.3862
13626,Copenhagen,NY,196271,Alto Potencial,99.9,8.4,2.3,10.1,0.5,43.8801,-75.6839
61842,Farmer City,IL,153948,Alto Potencial,99.9,10.8,1.7,4.9,-0.7,40.2447,-88.6634
18709,Luzerne,PA,161570,Alto Potencial,99.9,12.1,3.4,5.0,5.7,41.2843,-75.8935
54499,Elderon,WI,234176,Alto Potencial,99.9,10.2,3.0,5.5,2.7,44.8232,-89.1665
13044,,NY,234108,Alto Potencial,99.9,11.1,2.8,2.7,0.7,43.2728,-76.0042
27053,Mount Airy,NC,228388,Alto Potencial,99.9,9.7,2.9,7.0,3.6,36.4674,-80.3677
53570,Monticello,WI,323520,Alto Potencial,99.9,9.2,3.3,2.0,-0.6,42.7415,-89.6081
13746,Chenango Forks,NY,183383,Alto Potencial,99.9,9.3,2.7,3.5,-0.8,42.2778,-75.8462
53035,,WI,343100,Alto Potencial,99.9,8.7,2.9,2.8,0.5,43.3934,-88.5441
3440,Antrim,NH,400571,Alto Potencial,99.9,9.9,3.6,11.6,-1.9,,
6256,Windham,CT,288183,Alto Potencial,99.9,9.0,3.3,4.5,-0.1,,
47959,Monon,IN,171646,Alto Potencial,99.9,10.3,2.4,8.7,2.1,40.8612,-86.8635
53502,Albany,WI,324320,Alto Potencial,99.9,11.6,3.1,0.9,0.9,42.7155,-89.4357
54950,Marion,WI,219296,Alto Potencial,99.9,11.7,2.8,7.8,0.9,44.6794,-88.8767
54228,Mishicot,WI,238165,Alto Potencial,99.9,11.5,2.7,2.7,3.4,44.2609,-87.6447
13409,Munnsville,NY,199539,Alto Potencial,99.9,12.8,2.5,4.6,-0.6,42.9863,-75.594
67526,Ellinwood,KS,127981,Alto Potencial,99.9,9.8,1.9,6.3,0.4,38.3565,-98.5849
13116,Minoa,NY,253178,Alto Potencial,99.9,12.9,2.1,1.6,2.4,43.0772,-76.0098
26253,Beverly,WV,180114,Alto Potencial,99.9,10.5,2.5,10.3,0.9,38.828,-79.8651
43760,Mount Perry,OH,251579,Alto Potencial,99.9,8.7,3.0,11.4,-1.1,39.8788,-82.188
6247,Hampton,CT,354321,Alto Potencial,99.9,9.4,2.7,3.3,-1.1,,
54747,Independence,WI,207127,Alto Potencial,99.9,10.4,2.8,3.3,-0.1,44.3959,-91.4535
13146,Savannah,NY,164623,Alto Potencial,99.9,13.1,2.2,4.1,6.6,43.0934,-76.7565
13042,Cleveland,NY,233330,Alto Potencial,99.9,10.8,2.0,9.3,0.2,43.2432,-75.8537
46994,Walton,IN,193063,Alto Potencial,99.9,11.1,2.7,2.8,-2.1,40.6772,-86.2805
14517,Nunda,NY,179630,Alto Potencial,99.9,9.3,2.7,2.3,-1.2,42.5867,-77.918
53504,Argyle,WI,254996,Alto Potencial,99.9,11.0,2.7,2.7,-0.6,42.6955,-89.8598
54410,Arpin,WI,244799,Alto Potencial,99.9,10.1,2.7,3.5,-0.8,44.5419,-90.037
66087,,KS,146701,Alto Potencial,99.9,13.8,2.3,5.7,-2.0,39.7906,-95.1434
45346,New Madison,OH,190025,Alto Potencial,99.9,9.9,2.0,2.4,-1.0,39.9687,-84.7222
61028,Elizabeth,IL,182270,Alto Potencial,99.9,10.7,1.8,11.8,-0.6,42.3089,-90.1986
66967,Smith Center,KS,105055,Alto Potencial,99.9,11.9,1.6,8.4,-0.6,39.8042,-98.7842
27935,Eure,NC,222005,Alto Potencial,99.9,17.5,2.2,4.7,2.1,36.4341,-76.8463
38673,Taylor,MS,381410,Alto Potencial,99.9,10.0,3.5,13.6,2.4,34.2849,-89.6273
46978,Royal Center,IN,180221,Alto Potencial,99.9,11.7,2.2,6.8,2.0,40.8645,-86.5078
40177,West Point,KY,124044,Alto Potencial,99.9,11.5,2.1,9.4,2.6,37.9954,-85.9545
14533,Piffard,NY,219319,Alto Potencial,99.9,8.0,2.8,2.2,-1.1,42.8435,-77.8962
46991,Van Buren,IN,149960,Alto Potencial,99.9,11.2,2.7,8.4,0.8,40.6174,-85.5148
7074,Moonachie,NJ,636891,Alto Potencial,99.9,9.5,5.1,1.5,0.1,,
30450,Portal,GA,226322,Alto Potencial,99.9,11.7,3.2,6.3,-0.6,32.555,-81.9123
24281,Rose Hill,VA,111281,Alto Potencial,99.9,11.4,1.7,11.9,12.9,36.6583,-83.3486
61012,Capron,IL,248793,Alto Potencial,99.9,11.3,2.1,2.2,-1.8,42.4087,-88.7465
25865,Lester,WV,153904,Alto Potencial,99.9,10.6,3.3,16.5,0.1,37.7265,-81.3095
13083,Lacona,NY,175732,Alto Potencial,99.9,10.8,2.5,8.5,-0.2,43.6429,-76.0503
54648,Norwalk,WI,200037,Alto Potencial,99.9,9.7,2.4,4.2,1.3,43.8128,-90.6801
53011,Mitchell,WI,337830,Alto Potencial,99.9,9.9,3.1,9.0,2.2,43.6591,-88.0947
74339,Commerce,OK,74201,Alto Potencial,99.9,11.8,1.7,8.3,2.8,36.9331,-94.873
50456,Manly,IA,147048,Alto Potencial,99.9,12.7,1.6,4.4,0.5,43.2891,-93.2018
43556,Sherwood,OH,161152,Alto Potencial,99.9,8.1,2.1,4.9,1.2,41.2946,-84.5417
62295,Valmeyer,IL,236463,Alto Potencial,99.9,7.1,2.6,2.2,1.9,38.2805,-90.3122
44064,Montville,OH,288968,Alto Potencial,99.9,8.8,3.5,3.1,0.0,41.6034,-81.057
47862,Montezuma,IN,116285,Alto Potencial,99.9,12.7,1.4,8.8,-1.4,39.7961,-87.3607
51237,George,IA,178028,Alto Potencial,99.9,14.8,2.3,2.4,3.7,43.3439,-95.9894
61285,Thomson,IL,135734,Alto Potencial,99.9,17.1,1.7,9.7,0.1,41.9816,-90.0844
65239,Cairo,MO,257991,Alto Potencial,99.9,10.7,3.0,5.8,-1.9,39.5114,-92.44
61379,Wyanet,IL,121735,Alto Potencial,99.9,8.3,1.9,3.3,0.6,41.3785,-89.5744
15034,Dravosburg,PA,106681,Alto Potencial,99.9,9.4,2.0,7.9,-2.4,40.3527,-79.8895
43343,Quincy,OH,216043,Alto Potencial,99.9,9.8,2.8,2.7,4.1,40.2876,-83.9744
51016,Correctionville,IA,171756,Alto Potencial,99.9,11.0,2.8,5.4,2.0,42.4743,-95.7804
17009,Burnham,PA,131669,Alto Potencial,99.9,9.0,1.5,6.6,2.2,40.6361,-77.5625
14744,Houghton,NY,192119,Alto Potencial,99.9,11.6,2.0,5.0,-0.9,42.4228,-78.2063
44669,Paris,OH,260734,Alto Potencial,99.9,8.1,2.8,1.4,0.7,40.8014,-81.154
47557,Monroe City,IN,188672,Alto Potencial,99.9,9.9,2.0,5.5,-0.6,38.6001,-87.3641
66956,Mankato,KS,96228,Alto Potencial,99.9,10.5,1.5,9.4,-1.4,39.7833,-98.2152
66938,Clyde,KS,121264,Alto Potencial,99.9,12.2,1.8,5.4,1.3,39.5758,-97.408
63469,Shelbyville,MO,203905,Alto Potencial,99.9,19.1,3.2,14.2,1.4,39.8108,-92.0498
54227,Maribel,WI,333968,Alto Potencial,99.9,13.7,3.1,2.0,2.0,44.2852,-87.8055
46960,Monterey,IN,157615,Alto Potencial,99.9,11.5,2.9,14.4,-0.5,41.1383,-86.5179
49052,Vicksburg,MI,230081,Alto Potencial,99.9,10.6,3.1,2.6,2.7,42.1391,-85.3227
42054,Kirksey,KY,204704,Alto Potencial,99.9,14.6,2.9,5.9,3.3,36.6731,-88.4238
61051,Milledgeville,IL,131080,Alto Potencial,99.9,18.3,1.7,1.0,4.3,41.9674,-89.7801
13813,Nineveh,NY,183052,Alto Potencial,99.9,10.4,1.9,9.1,0.4,42.1625,-75.5484
46985,Star City,IN,160856,Alto Potencial,99.9,10.8,2.6,12.6,-1.1,40.9602,-86.5404
1355,New Salem,MA,392691,Alto Potencial,99.9,9.6,4.0,6.3,0.4,,
47020,Florence,IN,242384,Alto Potencial,99.9,12.1,3.1,2.0,-0.1,38.8224,-84.9399
61912,Ashmore,IL,130650,Alto Potencial,99.9,17.6,1.5,5.1,6.2,39.5254,-88.0341
54854,Maple,WI,234675,Alto Potencial,99.9,11.1,2.5,12.1,-0.1,46.6206,-91.702
68933,Clay Center,NE,179018,Alto Potencial,99.9,11.6,1.9,9.2,-1.7,40.5113,-98.0386
54805,Almena,WI,218929,Alto Potencial,99.9,12.9,2.9,7.2,-1.7,45.4195,-92.0027
47456,Quincy,IN,267136,Alto Potencial,99.9,8.9,3.4,2.8,-1.8,39.4429,-86.6696
61925,Dalton City,IL,180673,Alto Potencial,99.9,8.2,2.2,3.3,3.2,39.7119,-88.7975
52626,Farmington,IA,124613,Alto Potencial,99.9,9.9,1.8,6.3,-0.5,40.6397,-91.7447
44454,New Springfield,OH,165386,Alto Potencial,99.9,9.9,1.9,0.0,1.4,40.9049,-80.54
47832,,IN,184452,Alto Potencial,99.9,10.0,2.0,3.9,0.3,39.8348,-87.256
62638,Franklin,IL,142435,Alto Potencial,99.9,7.4,1.5,6.6,5.7,39.6222,-90.0889
54962,Ogdensburg,WI,253511,Alto Potencial,99.9,13.6,2.5,12.7,2.5,44.4268,-88.9932
45001,Addyston,OH,121548,Alto Potencial,99.9,9.0,2.3,7.3,1.8,39.1374,-84.7096
54836,Foxboro,WI,256103,Alto Potencial,99.9,15.3,2.7,9.0,0.9,46.4875,-92.1493
67484,,KS,163975,Alto Potencial,99.9,9.6,2.2,6.3,0.3,38.9916,-97.8319
46941,Lagro,IN,197226,Alto Potencial,99.9,9.4,2.2,9.9,-0.7,40.8199,-85.7204
1378,Warwick,MA,341783,Alto Potencial,99.9,9.9,3.0,6.3,-1.5,,
64436,Cosby,MO,332169,Alto Potencial,99.9,11.9,2.5,1.9,0.3,39.8555,-94.6977
23874,Newsoms,VA,230193,Alto Potencial,99.9,13.7,3.4,17.5,1.5,36.6148,-77.1069
47578,Sandborn,IN,144675,Alto Potencial,99.9,13.0,2.2,7.6,2.2,38.8817,-87.2025
50071,Dows,IA,117203,Alto Potencial,99.9,9.2,1.4,13.7,1.6,42.661,-93.5058
14729,East Otto,NY,208074,Alto Potencial,99.9,9.3,2.6,20.2,-1.7,42.3971,-78.7432
51557,Mondamin,IA,221319,Alto Potencial,99.9,10.6,2.6,7.6,3.6,41.7089,-96.0072
53046,Lannon,WI,536087,Alto Potencial,99.9,9.2,5.7,2.1,3.3,43.1497,-88.1639
57073,Wakonda,SD,232206,Alto Potencial,99.9,12.7,2.7,7.0,0.5,42.996,-97.0694
42566,Yosemite,KY,127980,Alto Potencial,99.9,13.0,3.6,16.6,-0.9,37.3074,-84.8124
13122,New Woodstock,NY,248944,Alto Potencial,99.9,12.1,2.7,5.7,0.8,42.8441,-75.8635
69123,Brady,NE,321796,Alto Potencial,99.9,12.4,3.6,13.7,-0.5,41.0515,-100.3736
52156,Luana,IA,281960,Alto Potencial,99.9,9.3,2.7,3.5,-1.0,43.0493,-91.4583
46731,Craigville,IN,287347,Alto Potencial,99.9,9.7,2.3,0.9,-0.4,40.793,-85.0904
64483,Rosendale,MO,247265,Alto Potencial,99.9,13.4,3.3,8.9,4.0,40.0399,-94.8328
1379,Wendell,MA,307914,Alto Potencial,99.9,8.8,3.8,1.6,0.2,,
69346,Harrison,NE,171586,Alto Potencial,99.9,11.7,2.5,35.6,2.2,42.6872,-103.8827
67645,,KS,83611,Alto Potencial,99.9,11.6,1.8,18.6,3.9,39.6105,-100.0028
43548,New Bavaria,OH,180905,Alto Potencial,99.9,9.1,1.7,2.5,1.0,41.2037,-84.1683
64638,Dawn,MO,287982,Alto Potencial,99.9,12.3,3.5,10.0,-0.1,39.6665,-93.5964
51530,Earling,IA,225732,Alto Potencial,99.9,13.6,3.6,6.8,-2.0,41.7925,-95.421
60929,Cullom,IL,127660,Alto Potencial,99.9,14.2,1.8,5.2,-1.1,40.8781,-88.2765
52765,New Liberty,IA,309132,Alto Potencial,99.9,10.7,2.4,4.8,-1.9,41.7132,-90.8599
53170,Salem,WI,323323,Alto Potencial,99.9,9.4,3.5,5.6,0.1,42.552,-88.1608
67019,Burden,KS,128078,Alto Potencial,99.9,11.7,1.9,6.8,-0.8,37.3209,-96.757
13469,Stittville,NY,239549,Alto Potencial,99.9,10.1,1.9,0.0,0.6,43.2229,-75.2899
50609,Beaman,IA,197197,Alto Potencial,99.9,11.3,1.9,4.6,0.3,42.2367,-92.8162
66943,Greenleaf,KS,130693,Alto Potencial,99.9,19.7,1.7,5.3,-2.1,39.7061,-96.9775
25070,Eleanor,WV,219184,Alto Potencial,99.9,8.3,2.5,2.1,-0.5,38.5436,-81.9414
64449,Fillmore,MO,220859,Alto Potencial,99.9,13.8,2.6,3.5,12.0,40.0142,-94.9555
66425,Fairview,KS,161635,Alto Potencial,99.9,12.5,2.3,3.8,-1.6,39.8445,-95.711
68841,Giltner,NE,278873,Alto Potencial,99.9,9.2,2.9,4.5,2.2,40.7654,-98.1434
74554,Krebs,OK,103478,Alto Potencial,99.9,8.1,1.9,9.2,1.5,34.9255,-95.7216
23177,Walkerton,VA,299950,Alto Potencial,99.9,10.6,2.8,4.7,0.8,37.7554,-77.0185
69040,Palisade,NE,121586,Alto Potencial,99.9,11.6,1.7,9.9,-0.4,40.3387,-101.1295
51527,Defiance,IA,200066,Alto Potencial,99.9,9.3,2.8,1.7,-2.4,41.8053,-95.3537
67070,Kiowa,KS,66229,Alto Potencial,99.9,13.8,0.8,19.4,5.1,37.0172,-98.4859
67563,Offerle,KS,139875,Alto Potencial,99.9,16.7,1.8,12.2,0.6,37.8828,-99.5498
68365,Grafton,NE,173978,Alto Potencial,99.9,7.4,2.0,2.2,-1.3,40.6402,-97.7403
67450,Holyrood,KS,72749,Alto Potencial,99.9,9.4,1.0,10.5,-0.2,38.59,-98.4159
47110,Corydon,IN,190065,Alto Potencial,99.9,10.9,2.5,11.7,-1.7,38.097,-86.1723
14511,Mumford,NY,211002,Alto Potencial,99.9,9.4,3.2,0.0,0.7,42.9928,-77.8603
67650,Morland,KS,109842,Alto Potencial,99.9,11.7,1.8,13.3,-0.4,39.3229,-100.0733
44490,Washingtonville,OH,113870,Alto Potencial,99.9,9.4,2.2,5.2,7.3,40.8973,-80.7631
67632,Damar,KS,129952,Alto Potencial,99.9,11.3,2.5,12.8,0.1,39.3242,-99.5811
45719,Chauncey,OH,79201,Alto Potencial,99.9,7.2,1.9,5.0,-0.1,39.4002,-82.1302
45307,Bowersville,OH,107688,Alto Potencial,99.9,12.4,1.6,5.1,12.2,39.5806,-83.7249
45310,Burkettsville,OH,196850,Alto Potencial,99.9,9.7,2.1,0.0,0.1,40.3541,-84.6435
38655,Oxford,MS,393121,Alto Potencial,99.8,11.3,4.8,19.6,4.2,34.3308,-89.4835
8820,Edison,NJ,790053,Alto Potencial,99.8,11.6,3.8,0.6,3.6,,
7109,Belleville,NJ,491200,Alto Potencial,99.8,8.2,4.6,2.4,3.0,,
44134,Parma,OH,194095,Alto Potencial,99.8,8.0,2.5,2.4,-1.3,41.3853,-81.7044
13027,Baldwinsville,NY,300850,Alto Potencial,99.8,8.5,2.7,1.4,-1.1,43.162,-76.3237
62526,Decatur,IL,90508,Alto Potencial,99.8,7.9,1.6,7.2,5.3,39.8583,-88.9382
44266,Ravenna,OH,206821,Alto Potencial,99.8,8.5,3.0,3.0,-0.1,41.1649,-81.2337
60099,Zion,IL,240241,Alto Potencial,99.8,9.5,3.1,2.6,-1.5,42.4442,-87.8389
54302,Green Bay,WI,234631,Alto Potencial,99.8,10.8,3.5,1.1,-1.0,44.5025,-87.9771
16066,Cranberry Township,PA,450219,Alto Potencial,99.8,7.9,3.1,1.8,-0.2,40.685,-80.1071
54401,Wausau,WI,228875,Alto Potencial,99.8,7.9,2.8,3.0,1.1,44.9654,-89.7066
44146,Bedford,OH,169267,Alto Potencial,99.8,7.6,2.8,4.4,-1.0,41.3921,-81.5232
46947,Logansport,IN,154392,Alto Potencial,99.8,11.4,2.3,3.7,-0.1,40.7604,-86.3599
60087,Waukegan,IL,239960,Alto Potencial,99.8,8.6,2.6,1.3,-1.8,42.3989,-87.8554
13905,Binghamton,NY,175319,Alto Potencial,99.8,8.9,2.7,7.8,-1.7,42.1151,-75.9309
61614,Peoria,IL,181541,Alto Potencial,99.8,8.6,2.3,2.9,-2.0,40.7681,-89.6026
16510,Erie,PA,190119,Alto Potencial,99.8,8.6,2.5,1.2,-1.3,42.1087,-79.9535
82718,Gillette,WY,367041,Alto Potencial,99.8,9.6,3.1,3.2,0.3,43.9282,-105.5492
11791,Syosset,NY,1107249,Alto Potencial,99.8,8.1,4.7,1.1,0.5,40.8146,-73.5024
40403,Berea,KY,242230,Alto Potencial,99.8,8.4,3.5,3.2,-1.6,37.5799,-84.2749
47302,Muncie,IN,101179,Alto Potencial,99.8,15.3,1.7,6.3,-1.6,40.1684,-85.3807
43606,Toledo,OH,180517,Alto Potencial,99.8,7.5,2.6,6.1,0.6,41.6712,-83.606
8876,Somerville,NJ,588709,Alto Potencial,99.8,7.8,4.1,0.7,1.1,,
14617,Rochester,NY,247434,Alto Potencial,99.8,8.0,2.3,2.1,-1.2,43.2203,-77.5994
11783,Seaford,NY,754437,Alto Potencial,99.8,8.0,4.0,1.1,0.4,40.6795,-73.491
8859,Parlin,NJ,515256,Alto Potencial,99.8,10.4,4.5,0.9,1.9,,
8550,Princeton Junction,NJ,974233,Alto Potencial,99.8,8.4,3.9,0.5,0.2,,
48879,Saint Johns,MI,277896,Alto Potencial,99.8,8.0,3.1,2.4,0.0,43.0059,-84.5719
44505,Youngstown,OH,80207,Alto Potencial,99.8,13.0,1.9,6.1,0.7,41.1257,-80.6277
67042,El Dorado,KS,166947,Alto Potencial,99.8,10.5,2.6,4.9,-2.3,37.8226,-96.8543
82716,Gillette,WY,293162,Alto Potencial,99.8,12.1,3.3,5.0,1.5,44.282,-105.4974
44314,Akron,OH,102951,Alto Potencial,99.8,10.3,1.9,6.8,-2.5,41.0408,-81.5598
44126,Fairview Park,OH,263038,Alto Potencial,99.8,7.4,2.9,1.9,-0.9,41.4429,-81.853
13205,Syracuse,NY,134393,Alto Potencial,99.8,12.8,2.7,8.3,2.1,43.0123,-76.1452
7646,New Milford,NJ,695357,Alto Potencial,99.8,8.8,5.2,1.6,1.8,,
25704,Huntington,WV,125341,Alto Potencial,99.8,8.4,2.2,6.2,0.5,38.3849,-82.5036
53073,Plymouth,WI,339690,Alto Potencial,99.8,8.4,3.8,2.0,0.5,43.7526,-87.9779
16508,Erie,PA,153984,Alto Potencial,99.8,8.8,2.4,3.0,-1.0,42.0976,-80.0935
62568,Taylorville,IL,126547,Alto Potencial,99.8,8.8,1.9,4.8,4.4,39.5489,-89.2945
44425,Hubbard,OH,155905,Alto Potencial,99.8,8.9,2.2,3.9,-3.0,41.1624,-80.5762
6119,West Hartford,CT,395302,Alto Potencial,99.8,7.1,3.1,2.6,0.5,,
47805,Terre Haute,IN,188271,Alto Potencial,99.8,8.4,2.3,2.3,-1.4,39.5327,-87.3255
45885,Saint Marys,OH,192974,Alto Potencial,99.8,8.0,2.3,2.7,-1.0,40.544,-84.3944
53098,Watertown,WI,298620,Alto Potencial,99.8,8.3,3.5,2.0,-0.0,43.2764,-88.7154
17103,Harrisburg,PA,120507,Alto Potencial,99.8,14.3,2.5,5.2,-2.2,40.2724,-76.861
54971,Ripon,WI,239538,Alto Potencial,99.8,9.0,3.1,2.7,-1.3,43.8454,-88.8424
13619,Carthage,NY,192220,Alto Potencial,99.8,8.1,2.6,5.1,-1.1,43.9791,-75.6013
14502,Macedon,NY,302731,Alto Potencial,99.8,9.1,3.0,1.5,-1.1,43.0784,-77.3372
44471,Struthers,OH,123593,Alto Potencial,99.8,12.5,1.9,5.4,-1.9,41.0508,-80.5985
54944,,WI,378016,Alto Potencial,99.8,8.8,3.3,0.8,-1.8,44.3273,-88.6281
7656,Park Ridge,NJ,800966,Alto Potencial,99.8,7.6,4.1,1.7,1.9,,
13036,Central Square,NY,245908,Alto Potencial,99.8,7.9,2.4,3.8,-1.7,43.309,-76.1849
54140,Little Chute,WI,272915,Alto Potencial,99.8,9.3,3.2,2.0,-1.5,44.2842,-88.312
25143,Nitro,WV,142995,Alto Potencial,99.8,7.8,2.3,7.8,-1.8,38.4193,-81.8293
6052,New Britain,CT,331107,Alto Potencial,99.8,8.1,3.4,3.9,-0.8,,
60042,Island Lake,IL,280035,Alto Potencial,99.8,7.6,2.5,1.8,-1.9,42.2742,-88.1926
27043,Pinnacle,NC,258509,Alto Potencial,99.8,8.9,3.0,3.8,-0.7,36.3339,-80.4391
53118,Ottawa,WI,562695,Alto Potencial,99.8,8.1,4.6,4.5,2.1,43.0142,-88.4726
43502,Archbold,OH,229641,Alto Potencial,99.8,7.9,2.8,2.3,-0.1,41.5333,-84.3048
7401,Allendale,NJ,1009692,Alto Potencial,99.8,9.2,5.6,2.5,-0.1,,
28586,Vanceboro,NC,194121,Alto Potencial,99.8,10.6,3.7,7.2,-1.5,35.3063,-77.1716
66901,Concordia,KS,116867,Alto Potencial,99.8,13.0,1.7,9.0,-2.9,39.5516,-97.6568
53594,Waterloo,WI,332818,Alto Potencial,99.8,8.0,3.6,1.8,-0.4,43.1832,-88.9838
45416,Trotwood,OH,97825,Alto Potencial,99.8,9.2,1.8,5.5,-1.2,39.8011,-84.2578
39837,Colquitt,GA,158351,Alto Potencial,99.8,12.9,2.2,6.4,-0.9,31.173,-84.731
63630,Cadet,MO,188789,Alto Potencial,99.8,11.5,3.1,9.4,0.9,38.0125,-90.7439
46721,Butler,IN,190142,Alto Potencial,99.8,8.9,2.4,4.2,-0.6,41.4287,-84.8787
27248,Franklinville,NC,200498,Alto Potencial,99.8,7.9,2.8,8.7,0.6,35.7917,-79.7132
18434,Jessup,PA,188670,Alto Potencial,99.8,13.1,2.7,2.9,1.1,41.4724,-75.5689
64633,Carrollton,MO,147531,Alto Potencial,99.8,8.0,2.0,9.7,-0.9,39.3673,-93.4926
49245,Homer,MI,136223,Alto Potencial,99.8,10.4,2.0,6.3,-1.6,42.1416,-84.8157
40006,Bedford,KY,221077,Alto Potencial,99.8,9.1,3.1,4.3,-1.9,38.5864,-85.3133
7046,Mountain Lakes,NJ,1119496,Alto Potencial,99.8,7.6,3.9,0.7,-0.3,,
7014,Clifton,NJ,555988,Alto Potencial,99.8,9.1,3.5,4.4,-1.0,,
17948,Mahanoy City,PA,50935,Alto Potencial,99.8,19.0,0.8,23.0,3.6,40.8123,-76.1396
13082,Kirkville,NY,251889,Alto Potencial,99.8,9.7,2.3,4.3,-0.6,43.0981,-75.955
47138,Lexington,IN,232874,Alto Potencial,99.8,8.3,2.6,8.0,0.3,38.6523,-85.6252
54448,Marathon,WI,279001,Alto Potencial,99.8,8.7,2.5,1.7,1.4,44.9291,-89.8404
13140,Port Byron,NY,182460,Alto Potencial,99.8,7.4,2.6,5.8,0.7,43.0427,-76.6449
44864,Perrysville,OH,226313,Alto Potencial,99.8,9.8,3.3,8.6,-0.8,40.6606,-82.3213
72461,,AR,125674,Alto Potencial,99.8,11.5,2.0,8.6,-3.6,36.2672,-90.2702
61755,Mackinaw,IL,225677,Alto Potencial,99.8,8.9,2.0,4.6,0.4,40.5396,-89.3458
7803,Mine Hill Township,NJ,485769,Alto Potencial,99.8,8.1,3.6,1.9,1.0,,
13329,Dolgeville,NY,148055,Alto Potencial,99.8,8.6,2.2,8.2,-2.5,43.1042,-74.7643
44437,Mc Donald,OH,145291,Alto Potencial,99.8,8.5,1.8,2.2,-2.2,41.158,-80.7312
45831,Continental,OH,191668,Alto Potencial,99.8,13.4,2.2,2.4,2.0,41.1148,-84.2358
51510,Carter Lake,IA,202448,Alto Potencial,99.8,9.1,2.3,1.9,-2.2,41.2925,-95.9141
53013,Holland,WI,355026,Alto Potencial,99.8,7.7,3.7,3.3,0.5,43.5751,-87.8401
30411,Alamo,GA,147582,Alto Potencial,99.8,13.0,2.7,7.4,1.4,32.133,-82.7944
8804,Bloomsbury,NJ,480425,Alto Potencial,99.8,8.4,3.9,1.8,1.6,,
53933,Fox Lake,WI,319463,Alto Potencial,99.8,9.2,3.4,10.7,-1.2,43.5815,-88.9041
67654,Norton,KS,126390,Alto Potencial,99.8,12.4,2.3,8.7,-3.3,39.8407,-99.8878
13787,Harpursville,NY,183151,Alto Potencial,99.8,10.0,2.3,10.0,-0.7,42.1823,-75.6545
13408,Morrisville,NY,223283,Alto Potencial,99.8,11.9,2.8,5.8,0.4,42.9108,-75.6487
54437,Greenwood,WI,202451,Alto Potencial,99.8,8.7,2.8,5.2,-1.4,44.7404,-90.6229
25827,Midway,WV,141799,Alto Potencial,99.8,11.2,2.0,8.6,-0.9,37.7385,-81.2536
13143,Red Creek,NY,179319,Alto Potencial,99.8,7.6,2.1,6.0,3.5,43.2291,-76.7146
41063,Morning View,KY,269015,Alto Potencial,99.8,7.5,2.7,2.2,0.8,38.8394,-84.5069
44086,Thompson,OH,278048,Alto Potencial,99.8,8.6,2.9,2.2,-0.4,41.6762,-81.0573
44814,Berlin Heights,OH,262503,Alto Potencial,99.8,9.4,3.1,2.7,0.7,41.3205,-82.4777
49968,Wakefield,MI,99547,Alto Potencial,99.8,12.4,1.7,17.9,-2.1,46.4752,-89.9424
40510,Lexington,KY,660012,Alto Potencial,99.8,9.8,3.5,0.0,0.5,38.0702,-84.591
13424,Oriskany,NY,229151,Alto Potencial,99.8,7.8,2.2,2.9,-1.6,43.1524,-75.3434
12023,Berne,NY,300474,Alto Potencial,99.8,8.4,2.2,3.5,-1.7,42.6108,-74.1466
17970,Saint Clair,PA,96203,Alto Potencial,99.8,15.0,1.3,11.7,1.0,40.7193,-76.1924
45337,Laura,OH,246162,Alto Potencial,99.8,7.8,2.1,1.1,-2.2,39.9785,-84.3994
48894,Westphalia,MI,321046,Alto Potencial,99.8,8.9,2.6,0.3,-1.3,42.9328,-84.8083
13493,Williamstown,NY,162700,Alto Potencial,99.8,8.5,2.4,6.1,-2.2,43.4106,-75.9044
44046,Huntsburg,OH,294442,Alto Potencial,99.8,7.7,3.5,1.2,-0.3,41.5384,-81.0734
45657,Otway,OH,133113,Alto Potencial,99.8,10.2,2.0,25.7,2.5,38.852,-83.2222
13060,Elbridge,NY,254553,Alto Potencial,99.8,8.5,3.5,2.8,-0.8,43.0252,-76.4352
53059,Neosho,WI,419670,Alto Potencial,99.8,7.8,4.1,1.5,-0.1,43.2978,-88.5205
47840,Center Point,IN,188954,Alto Potencial,99.8,8.4,1.9,6.9,1.2,39.391,-87.0935
13156,Sterling,NY,220261,Alto Potencial,99.8,10.0,2.6,30.6,0.0,43.3296,-76.6747
46166,Paragon,IN,251974,Alto Potencial,99.8,9.2,2.6,6.3,-2.0,39.4042,-86.5779
18218,Coaldale,PA,95732,Alto Potencial,99.8,19.7,1.1,9.4,10.5,40.8219,-75.9104
47527,Dubois,IN,225373,Alto Potencial,99.8,8.2,2.2,0.8,1.0,38.4728,-86.7832
16410,Cranesville,PA,225698,Alto Potencial,99.8,7.9,2.2,3.3,-2.6,41.9162,-80.3085
47260,Medora,IN,179364,Alto Potencial,99.8,9.1,2.3,5.6,1.4,38.8255,-86.1897
12093,Jefferson,NY,235316,Alto Potencial,99.8,10.9,3.3,40.9,-0.3,42.4999,-74.6117
50626,Dunkerton,IA,231480,Alto Potencial,99.8,8.1,2.4,3.7,-0.8,42.578,-92.1588
60460,Odell,IL,161992,Alto Potencial,99.8,9.6,1.6,2.9,-0.7,41.0238,-88.5156
13402,Madison,NY,206545,Alto Potencial,99.8,12.1,2.8,13.2,1.4,42.8969,-75.5076
65257,Higbee,MO,206205,Alto Potencial,99.8,9.7,3.3,9.0,-1.8,39.3055,-92.5163
47373,Redkey,IN,129575,Alto Potencial,99.8,9.5,2.2,3.8,-1.9,40.3265,-85.162
47943,Fair Oaks,IN,331270,Alto Potencial,99.8,8.3,4.4,2.6,-0.1,41.075,-87.2575
30425,Garfield,GA,191477,Alto Potencial,99.8,11.9,2.6,5.6,-0.8,32.6549,-82.1002
46974,Roann,IN,210765,Alto Potencial,99.8,8.9,3.2,7.4,-0.7,40.9482,-85.9301
54930,Coloma,WI,243186,Alto Potencial,99.8,13.0,2.6,16.9,-2.5,44.0275,-89.4943
27938,Gatesville,NC,197119,Alto Potencial,99.8,16.2,3.4,5.6,3.0,36.4072,-76.7325
13334,Eaton,NY,218308,Alto Potencial,99.8,10.5,3.7,42.1,-2.0,42.8484,-75.6314
44638,Lakeville,OH,275007,Alto Potencial,99.8,10.1,3.5,8.7,-2.0,40.652,-82.1455
53001,Scott,WI,312535,Alto Potencial,99.8,8.7,3.0,2.4,-1.9,43.6151,-88.0254
14481,Leicester,NY,210058,Alto Potencial,99.8,9.1,2.4,1.3,-1.4,42.7739,-77.899
67548,La Crosse,KS,93037,Alto Potencial,99.8,11.8,1.6,8.1,-5.5,38.5311,-99.3097
16411,East Springfield,PA,184365,Alto Potencial,99.8,8.8,2.4,5.4,-0.9,41.9794,-80.4303
53569,Montfort,WI,232718,Alto Potencial,99.8,9.6,2.3,4.9,-1.9,42.9757,-90.4447
45898,Willshire,OH,172154,Alto Potencial,99.8,9.5,2.6,5.4,-0.1,40.7346,-84.7777
68660,Saint Edward,NE,223908,Alto Potencial,99.8,12.3,3.2,5.6,-0.3,41.5708,-97.8801
13144,Richland,NY,140059,Alto Potencial,99.8,9.8,1.9,30.9,1.4,43.5776,-76.0029
14894,Wellsburg,NY,148597,Alto Potencial,99.8,10.5,2.5,4.7,0.8,42.0273,-76.7723
47858,Lewis,IN,201087,Alto Potencial,99.8,8.8,3.4,0.0,2.2,39.2733,-87.2637
47235,Freetown,IN,241380,Alto Potencial,99.8,9.1,2.9,8.9,-1.5,38.9957,-86.1241
56041,,MN,286089,Alto Potencial,99.8,10.2,3.1,3.6,-1.3,44.1527,-94.4933
24991,Crawley,WV,190775,Alto Potencial,99.8,10.7,3.1,19.2,-1.6,37.9701,-80.4923
68624,Bellwood,NE,217416,Alto Potencial,99.8,9.3,2.5,14.9,-1.9,41.3474,-97.2747
63014,New Haven,MO,270553,Alto Potencial,99.8,9.7,3.6,5.9,-1.8,38.6444,-91.3374
74555,,OK,231289,Alto Potencial,99.8,10.7,3.2,15.5,0.0,34.2691,-95.9685
10501,Amawalk,NY,755850,Alto Potencial,99.8,7.5,2.8,1.2,-0.1,41.2946,-73.7611
47950,Idaville,IN,173710,Alto Potencial,99.8,13.5,2.7,4.2,5.6,40.7674,-86.6556
27917,Barco,NC,325423,Alto Potencial,99.8,9.5,3.6,5.0,-2.3,36.3588,-75.9793
25537,Lesage,WV,149412,Alto Potencial,99.8,9.6,2.1,18.2,2.0,38.477,-82.2957
64649,Kidder,MO,278425,Alto Potencial,99.8,10.0,3.7,3.3,-1.7,39.7803,-94.1024
47550,Grandview,IN,284176,Alto Potencial,99.8,10.6,2.1,0.0,1.6,38.0429,-86.9497
42339,Dunmor,KY,134668,Alto Potencial,99.8,10.3,2.4,9.9,6.6,37.084,-87.0079
65244,Clifton Hill,MO,233217,Alto Potencial,99.8,11.0,3.2,33.0,-2.0,39.426,-92.6677
52621,Crawfordsville,IA,209803,Alto Potencial,99.8,8.5,1.9,3.9,-1.3,41.2093,-91.5414
67525,Claflin,KS,133947,Alto Potencial,99.8,9.7,1.4,18.5,-0.5,38.5409,-98.5372
67552,Lewis,KS,99965,Alto Potencial,99.8,12.3,1.8,10.7,-3.6,37.9062,-99.248
12998,Witherbee,NY,88102,Alto Potencial,99.8,11.6,1.8,27.5,-0.9,44.0827,-73.5306
47588,Evanston,IN,179205,Alto Potencial,99.8,11.1,2.6,6.9,-1.9,38.0331,-86.7981
13406,Middleville,NY,170771,Alto Potencial,99.8,13.2,1.4,11.0,-0.2,43.1369,-74.924
68820,,NE,274513,Alto Potencial,99.8,10.4,3.0,11.3,-0.3,41.1003,-98.6976
3609,Walpole,NH,267710,Alto Potencial,99.8,14.2,2.9,3.2,1.0,,
47857,Knightsville,IN,130689,Alto Potencial,99.8,12.3,1.9,6.2,-3.2,39.5269,-87.0869
67485,Tipton,KS,164893,Alto Potencial,99.8,20.1,2.5,7.4,2.2,39.3436,-98.4644
67653,Norcatur,KS,86947,Alto Potencial,99.8,9.1,1.1,8.5,-1.2,39.8447,-100.2007
6266,South Windham,CT,297080,Alto Potencial,99.8,10.6,3.1,0.0,-1.1,,
12071,Fultonham,NY,197164,Alto Potencial,99.8,9.0,2.5,13.1,-0.2,42.5923,-74.4381
60109,Burlington,IL,304906,Alto Potencial,99.8,8.5,3.2,2.7,0.3,42.0458,-88.539
46943,Laketon,IN,113792,Alto Potencial,99.8,9.7,2.4,23.0,1.3,40.9743,-85.8375
24457,Covington,VA,110836,Alto Potencial,99.8,8.4,3.6,11.5,2.7,37.7887,-79.8837
43010,Catawba,OH,182490,Alto Potencial,99.8,11.7,2.8,1.8,2.8,39.9991,-83.6222
8861,Perth Amboy,NJ,482374,Alto Potencial,99.7,10.6,6.7,1.1,1.4,,
8540,Princeton,NJ,941077,Alto Potencial,99.7,8.7,4.7,2.5,0.4,,
7601,Hackensack,NJ,455653,Alto Potencial,99.7,8.2,4.8,2.4,2.1,,
20164,Sterling,VA,581148,Alto Potencial,99.7,7.5,3.8,0.8,1.3,39.023,-77.3994
13440,Rome,NY,192076,Alto Potencial,99.7,9.5,2.5,4.0,-2.1,43.2193,-75.4498
61820,Champaign,IL,166743,Alto Potencial,99.7,8.3,4.7,8.6,0.5,40.111,-88.2407
6450,Meriden,CT,299926,Alto Potencial,99.7,10.4,3.6,3.2,-1.4,,
46902,Kokomo,IN,187844,Alto Potencial,99.7,9.6,2.7,5.5,-2.9,40.4509,-86.1352
19013,Chester,PA,108748,Alto Potencial,99.7,13.0,2.2,7.1,-1.6,39.8498,-75.3747
7039,Livingston,NJ,981915,Alto Potencial,99.7,10.8,3.8,0.8,2.0,,
60174,Saint Charles,IL,401302,Alto Potencial,99.7,7.4,3.4,1.9,-1.2,41.9194,-88.307
6033,Glastonbury,CT,493086,Alto Potencial,99.7,7.4,2.8,1.1,0.2,,
60015,Deerfield,IL,655498,Alto Potencial,99.7,8.8,3.0,1.5,0.5,42.1705,-87.859
43512,Defiance,OH,174163,Alto Potencial,99.7,7.5,2.1,3.7,-0.0,41.2799,-84.3626
7040,Maplewood,NJ,860344,Alto Potencial,99.7,7.7,4.3,1.3,0.8,,
7080,South Plainfield,NJ,548907,Alto Potencial,99.7,9.9,3.7,0.7,3.8,,
46806,Fort Wayne,IN,109366,Alto Potencial,99.7,10.2,1.9,3.9,-1.4,41.048,-85.1135
53090,West Bend,WI,337169,Alto Potencial,99.7,7.2,3.3,1.3,1.0,43.4438,-88.1963
18504,Scranton,PA,173211,Alto Potencial,99.7,14.3,2.7,7.2,-1.6,41.4128,-75.6861
17104,Harrisburg,PA,115801,Alto Potencial,99.7,16.0,2.3,4.7,-2.0,40.2597,-76.8594
14420,Brockport,NY,259126,Alto Potencial,99.7,8.5,3.1,2.9,-1.9,43.2128,-77.9368
8104,Camden,NJ,124130,Alto Potencial,99.7,20.1,2.4,6.5,2.2,,
6226,Willimantic,CT,257770,Alto Potencial,99.7,10.9,4.8,2.3,-0.5,,
7095,Woodbridge,NJ,453610,Alto Potencial,99.7,10.8,3.7,2.0,1.3,,
44705,Canton,OH,95731,Alto Potencial,99.7,14.4,1.8,4.9,5.4,40.8259,-81.3399
60521,Hinsdale,IL,1089683,Alto Potencial,99.7,7.7,4.0,2.9,0.2,41.8001,-87.9287
7031,North Arlington,NJ,587915,Alto Potencial,99.7,7.8,5.0,2.1,2.1,,
87544,Los Alamos,NM,570782,Alto Potencial,99.7,7.8,3.6,1.5,0.7,35.8663,-106.2676
44103,Cleveland,OH,75311,Alto Potencial,99.7,11.7,2.6,18.1,8.3,41.5157,-81.6405
18512,Scranton,PA,218359,Alto Potencial,99.7,8.2,3.0,3.5,0.1,41.435,-75.6103
53085,Sheboygan Falls,WI,310293,Alto Potencial,99.7,8.0,3.7,1.9,-0.9,43.7266,-87.8242
7836,Flanders,NJ,641915,Alto Potencial,99.7,7.7,3.6,0.8,-0.7,,
7043,Montclair,NJ,1235570,Alto Potencial,99.7,10.2,4.1,2.4,-0.5,,
7922,Berkeley Heights,NJ,880542,Alto Potencial,99.7,7.8,4.2,1.5,2.9,,
6238,Coventry,CT,367219,Alto Potencial,99.7,7.3,3.0,1.9,0.0,,
11577,East Hills,NY,1256804,Alto Potencial,99.7,8.6,5.9,1.3,1.2,40.7845,-73.6403
49858,Menominee,MI,170944,Alto Potencial,99.7,8.5,2.6,8.5,3.7,45.1343,-87.6215
7456,Ringwood,NJ,571341,Alto Potencial,99.7,7.7,3.4,0.8,0.9,,
27052,Walnut Cove,NC,217860,Alto Potencial,99.7,7.5,3.3,3.2,-0.5,36.3189,-80.1484
7438,Oak Ridge,NJ,509719,Alto Potencial,99.7,7.4,3.6,1.7,0.6,,
7876,Succasunna,NJ,639670,Alto Potencial,99.7,8.1,3.3,0.8,2.0,,
61065,Poplar Grove,IL,256148,Alto Potencial,99.7,9.1,2.1,3.4,-2.4,42.3594,-88.8428
61727,Clinton,IL,137686,Alto Potencial,99.7,10.0,1.9,3.8,0.6,40.1487,-88.9627
60044,Lake Bluff,IL,580018,Alto Potencial,99.7,8.6,3.9,3.1,-0.5,42.282,-87.856
60069,Lincolnshire,IL,639237,Alto Potencial,99.7,7.4,3.5,3.4,-1.1,42.1976,-87.9261
8628,Ewing,NJ,424228,Alto Potencial,99.7,8.7,3.5,2.3,-1.5,,
8884,Spotswood,NJ,544302,Alto Potencial,99.7,10.3,4.4,0.5,1.8,,
8869,Raritan,NJ,536236,Alto Potencial,99.7,8.7,4.4,0.6,2.1,,
24230,Coeburn,VA,114696,Alto Potencial,99.7,8.8,1.8,14.4,-3.2,36.9605,-82.4735
2814,Glocester,RI,480299,Alto Potencial,99.7,8.8,3.7,5.0,-0.8,,
26164,Ravenswood,WV,171644,Alto Potencial,99.7,10.5,3.1,5.7,-1.3,38.9468,-81.7524
18433,Jermyn,PA,227863,Alto Potencial,99.7,10.7,2.5,5.0,0.8,41.5744,-75.5881
8084,Stratford,NJ,323438,Alto Potencial,99.7,8.1,2.7,0.4,-2.3,,
14445,East Rochester,NY,218674,Alto Potencial,99.7,10.8,2.4,2.3,1.7,43.1128,-77.4906
71078,Stonewall,LA,364628,Alto Potencial,99.7,12.0,3.8,2.2,3.2,32.2848,-93.8003
48808,Bath,MI,316097,Alto Potencial,99.7,8.3,3.4,0.5,-0.4,42.8206,-84.4545
6354,Plainfield,CT,352790,Alto Potencial,99.7,8.7,3.2,0.0,0.5,,
53179,Salem,WI,329602,Alto Potencial,99.7,8.4,3.0,1.6,-1.4,42.5201,-88.1387
53039,Juneau,WI,300749,Alto Potencial,99.7,9.9,3.1,5.6,-0.3,43.3792,-88.6845
8853,Branchburg Township,NJ,837432,Alto Potencial,99.7,7.7,3.3,2.0,0.9,,
6331,Canterbury,CT,377423,Alto Potencial,99.7,8.9,3.3,1.5,-2.1,,
61911,Arthur,IL,176608,Alto Potencial,99.7,11.0,1.9,2.8,4.0,39.7077,-88.4555
11804,Old Bethpage,NY,926915,Alto Potencial,99.7,8.9,4.9,2.0,1.9,40.765,-73.4575
14590,Wolcott,NY,200645,Alto Potencial,99.7,8.7,3.0,20.0,3.0,43.2341,-76.8217
42348,Hawesville,KY,187761,Alto Potencial,99.7,10.2,2.7,4.3,-2.4,37.8503,-86.7638
67420,Beloit,KS,147267,Alto Potencial,99.7,12.2,2.4,7.5,-3.0,39.4416,-98.1192
46793,Waterloo,IN,231717,Alto Potencial,99.7,8.9,2.7,3.3,-0.7,41.4402,-85.0221
47923,Brookston,IN,227526,Alto Potencial,99.7,10.2,2.5,3.8,-1.3,40.6011,-86.8753
44288,Windham,OH,183685,Alto Potencial,99.7,9.5,2.4,3.0,1.4,41.2392,-81.0535
48096,Ray,MI,388173,Alto Potencial,99.7,8.1,2.9,1.3,-0.3,42.754,-82.9163
60541,Newark,IL,370231,Alto Potencial,99.7,7.7,2.7,3.0,-1.4,41.5267,-88.527
43310,Belle Center,OH,263419,Alto Potencial,99.7,7.9,3.3,10.3,0.4,40.5024,-83.7688
67661,,KS,119133,Alto Potencial,99.7,12.9,1.8,10.0,-6.2,39.7623,-99.3328
46929,Flora,IN,188545,Alto Potencial,99.7,8.1,2.6,3.4,0.9,40.5445,-86.5016
13120,Nedrow,NY,165748,Alto Potencial,99.7,10.7,2.5,1.5,3.4,42.9559,-76.1529
60146,Kirkland,IL,263053,Alto Potencial,99.7,9.0,2.7,1.2,-1.0,42.1014,-88.8685
41003,Berry,KY,194302,Alto Potencial,99.7,9.2,2.3,4.5,-2.6,38.516,-84.3611
6377,Sterling,CT,375329,Alto Potencial,99.7,12.4,3.3,2.0,1.6,,
54966,Plainfield,WI,215192,Alto Potencial,99.7,11.4,2.9,11.1,0.3,44.2091,-89.4559
53108,Raymond,WI,352206,Alto Potencial,99.7,7.3,3.8,1.7,-1.0,42.8295,-87.9228
61533,Glasford,IL,172083,Alto Potencial,99.7,9.6,2.1,3.1,1.0,40.576,-89.8113
7737,Leonardo,NJ,600186,Alto Potencial,99.7,8.2,3.8,2.8,-1.6,,
8828,Helmetta,NJ,511144,Alto Potencial,99.7,9.1,4.1,1.0,2.1,,
67074,Leon,KS,194967,Alto Potencial,99.7,11.5,2.3,9.5,-4.4,37.6813,-96.7526
17098,Williamstown,PA,133637,Alto Potencial,99.7,13.0,1.8,3.1,1.1,40.5808,-76.6223
67642,Hill City,KS,105470,Alto Potencial,99.7,12.0,1.7,6.4,3.8,39.3566,-99.8429
44099,Windsor,OH,289187,Alto Potencial,99.7,10.2,2.7,2.9,-0.2,41.5623,-80.9667
53006,,WI,333144,Alto Potencial,99.7,8.3,3.2,0.7,0.8,43.6028,-88.523
54424,Deerbrook,WI,276055,Alto Potencial,99.7,10.5,3.1,33.7,-1.6,45.2368,-89.1873
64624,Braymer,MO,172977,Alto Potencial,99.7,11.6,2.3,8.5,2.8,39.5915,-93.7887
51535,Griswold,IA,171749,Alto Potencial,99.7,12.6,1.8,4.5,-3.6,41.235,-95.1375
53057,Mount Calvary,WI,313151,Alto Potencial,99.7,8.1,2.7,1.8,0.7,43.8142,-88.2399
54770,Strum,WI,263882,Alto Potencial,99.7,8.8,2.9,1.1,-1.0,44.5674,-91.3833
44427,Kensington,OH,203546,Alto Potencial,99.7,7.9,3.6,7.7,-0.8,40.7142,-80.9381
13052,De Ruyter,NY,234044,Alto Potencial,99.7,8.8,2.6,23.2,-1.4,42.7494,-75.8582
46920,Cutler,IN,267748,Alto Potencial,99.7,9.3,2.4,0.0,-0.2,40.4785,-86.4462
65263,Madison,MO,214318,Alto Potencial,99.7,8.2,3.5,12.0,0.4,39.4615,-92.2287
54932,Eldorado,WI,325188,Alto Potencial,99.7,9.4,2.5,0.3,-1.4,43.8415,-88.6388
8887,Branchburg Township,NJ,328720,Alto Potencial,99.7,10.3,2.4,2.9,3.8,,
21778,Rocky Ridge,MD,423295,Alto Potencial,99.7,8.3,3.4,3.8,-0.4,39.6057,-77.3296
51573,Stanton,IA,189253,Alto Potencial,99.7,10.6,1.9,2.2,-4.2,40.9859,-95.0988
13061,Erieville,NY,276399,Alto Potencial,99.7,12.7,2.8,49.1,-1.1,42.8562,-75.7543
66724,Cherokee,KS,120323,Alto Potencial,99.7,12.3,1.9,13.7,1.2,37.3694,-94.8424
68641,Howells,NE,248170,Alto Potencial,99.7,13.5,2.9,7.7,-2.1,41.725,-97.0028
13665,Natural Bridge,NY,159650,Alto Potencial,99.7,9.1,2.4,8.5,-4.3,44.063,-75.5039
17093,Summerdale,PA,229885,Alto Potencial,99.7,7.1,2.7,11.4,-0.6,40.3078,-76.9312
47861,Merom,IN,130260,Alto Potencial,99.7,9.4,2.1,3.9,-3.1,39.0564,-87.5675
12956,Mineville,NY,138933,Alto Potencial,99.7,9.5,1.7,2.0,-2.3,44.0876,-73.5236
25431,Levels,WV,212681,Alto Potencial,99.7,12.7,2.6,21.1,-0.9,39.4976,-78.5508
67436,Delphos,KS,116417,Alto Potencial,99.7,9.7,1.7,14.3,3.1,39.2731,-97.7717
14714,Black Creek,NY,138521,Alto Potencial,99.7,10.0,1.2,8.3,-4.8,42.2855,-78.2312
46376,Schneider,IN,177282,Alto Potencial,99.7,11.2,2.1,2.5,2.0,41.19,-87.4779
6264,Scotland,CT,355150,Alto Potencial,99.7,9.0,3.4,0.0,-1.4,,
12036,Charlotteville,NY,203752,Alto Potencial,99.7,10.3,4.0,28.7,2.8,42.533,-74.6819
46111,Brooklyn,IN,184039,Alto Potencial,99.7,8.3,2.3,2.0,-2.4,39.5396,-86.3701
45372,Tremont City,OH,123861,Alto Potencial,99.7,13.2,1.9,5.9,2.7,40.0139,-83.8333
47535,Edwardsport,IN,121976,Alto Potencial,99.7,11.9,1.6,0.0,2.5,38.8627,-87.3127
7087,Union City,NJ,534356,Alto Potencial,99.6,14.3,6.7,2.5,6.1,,
8873,Somerset,NJ,554886,Alto Potencial,99.6,8.6,4.0,0.9,0.0,,
7003,Bloomfield,NJ,574756,Alto Potencial,99.6,8.3,4.9,1.2,3.7,,
8816,East Brunswick,NJ,602339,Alto Potencial,99.6,11.4,3.5,1.1,1.9,,
8817,Edison,NJ,539189,Alto Potencial,99.6,12.1,4.0,1.3,3.3,,
7032,Kearny,NJ,553949,Alto Potencial,99.6,9.6,5.8,1.4,0.9,,
11756,Levittown,NY,688284,Alto Potencial,99.6,8.0,4.3,0.6,0.5,40.7254,-73.5166
54935,Fond du Lac,WI,218529,Alto Potencial,99.6,8.5,2.9,3.2,-2.2,43.7742,-88.4352
54220,Manitowoc,WI,222199,Alto Potencial,99.6,11.7,2.7,3.8,1.0,44.0971,-87.6823
44122,Shaker Heights,OH,342950,Alto Potencial,99.6,7.1,3.0,4.5,-1.3,41.4701,-81.5232
2864,Cumberland,RI,497836,Alto Potencial,99.6,8.0,3.6,1.7,-1.6,,
7090,Westfield,NJ,1165645,Alto Potencial,99.6,8.2,4.7,1.4,-0.6,,
60515,Downers Grove,IL,453920,Alto Potencial,99.6,7.1,3.2,1.7,4.7,41.8034,-88.0138
14606,Rochester,NY,195847,Alto Potencial,99.6,9.5,2.8,2.9,-1.0,43.1685,-77.6845
7424,Woodland Park,NJ,608926,Alto Potencial,99.6,7.7,5.1,1.1,0.3,,
7008,Carteret,NJ,525358,Alto Potencial,99.6,9.0,5.0,1.5,0.3,,
46953,Marion,IN,101855,Alto Potencial,99.6,12.3,1.9,5.4,0.0,40.5359,-85.6616
14620,Rochester,NY,261568,Alto Potencial,99.6,7.7,3.6,4.8,0.8,43.1317,-77.6062
11776,Port Jefferson Station,NY,592555,Alto Potencial,99.6,8.0,4.2,2.7,0.1,40.9136,-73.0464
54301,Allouez,WI,275330,Alto Potencial,99.6,9.2,3.0,2.3,-0.9,44.482,-88.0205
53206,Milwaukee,WI,79954,Alto Potencial,99.6,19.8,2.0,12.2,3.8,43.0753,-87.9347
61111,Loves Park,IL,183185,Alto Potencial,99.6,8.1,2.6,1.8,0.4,42.3295,-89.0335
53224,Milwaukee,WI,223376,Alto Potencial,99.6,8.1,2.7,3.4,-1.5,43.1594,-88.0327
61101,Rockford,IL,97437,Alto Potencial,99.6,15.6,1.5,5.3,8.2,42.2922,-89.1161
45344,New Carlisle,OH,200951,Alto Potencial,99.6,7.7,2.5,2.7,-1.9,39.93,-84.0217
40215,Louisville,KY,132972,Alto Potencial,99.6,9.7,2.7,6.1,-1.1,38.1913,-85.7847
8110,Pennsauken,NJ,278048,Alto Potencial,99.6,9.7,2.8,2.4,-1.5,,
54452,Merrill,WI,209353,Alto Potencial,99.6,9.0,2.8,4.3,-0.6,45.1809,-89.6907
43952,Steubenville,OH,98416,Alto Potencial,99.6,7.7,1.8,7.4,0.0,40.3698,-80.634
44110,Cleveland,OH,81148,Alto Potencial,99.6,14.0,2.3,11.8,-1.1,41.5636,-81.5733
48912,Lansing,MI,134331,Alto Potencial,99.6,9.3,2.2,4.8,-0.0,42.7371,-84.5244
47904,Lafayette,IN,173751,Alto Potencial,99.6,9.8,3.0,3.7,0.2,40.4276,-86.8735
29070,,SC,251294,Alto Potencial,99.6,9.0,3.4,9.7,-1.5,33.9132,-81.4598
40208,Louisville,KY,134020,Alto Potencial,99.6,9.2,3.0,8.1,1.2,38.22,-85.7648
48342,Pontiac,MI,120187,Alto Potencial,99.6,10.9,2.9,5.1,-0.3,42.6439,-83.2792
16301,Oil City,PA,97140,Alto Potencial,99.6,13.4,1.5,8.8,-0.8,41.4319,-79.6916
6716,Wolcott,CT,369029,Alto Potencial,99.6,7.9,2.7,2.0,-0.6,,
2726,Somerset,MA,498115,Alto Potencial,99.6,7.9,3.9,1.2,-1.2,,
67005,Arkansas City,KS,98234,Alto Potencial,99.6,11.7,1.5,6.9,-4.1,37.0676,-97.0357
54241,Two Rivers,WI,203150,Alto Potencial,99.6,10.5,2.7,4.3,0.1,44.166,-87.5855
16505,Erie,PA,232695,Alto Potencial,99.6,8.1,2.8,6.2,-1.6,42.1109,-80.1534
8846,Middlesex,NJ,511326,Alto Potencial,99.6,9.8,4.0,0.9,3.6,,
18444,Moscow,PA,317607,Alto Potencial,99.6,11.9,3.0,4.4,1.7,41.3432,-75.5301
53074,Port Washington,WI,351842,Alto Potencial,99.6,7.1,3.9,0.8,0.4,43.3955,-87.8797
47807,Terre Haute,IN,81635,Alto Potencial,99.6,13.5,2.9,9.7,-1.7,39.471,-87.4009
43567,Wauseon,OH,217718,Alto Potencial,99.6,7.4,2.5,1.4,-0.2,41.5668,-84.1537
14513,Newark,NY,189415,Alto Potencial,99.6,10.1,2.6,2.4,1.0,43.0519,-77.0946
6385,Waterford,CT,398046,Alto Potencial,99.6,7.7,3.0,4.6,-0.7,,
18509,Scranton,PA,189979,Alto Potencial,99.6,13.1,3.1,6.1,-0.6,41.4274,-75.6465
67219,Park City,KS,177247,Alto Potencial,99.6,8.4,2.3,5.8,-3.8,37.7719,-97.3175
18634,Nanticoke,PA,150609,Alto Potencial,99.6,12.0,2.1,6.5,-2.5,41.1963,-76.0044
7436,Oakland,NJ,709441,Alto Potencial,99.6,7.5,3.8,2.3,0.3,,
60041,Fox Lake,IL,282432,Alto Potencial,99.6,7.7,2.7,1.0,-0.9,42.3631,-88.1587
49801,Iron Mountain,MI,179265,Alto Potencial,99.6,8.4,2.4,4.1,4.3,45.8219,-88.0683
44662,Navarre,OH,200457,Alto Potencial,99.6,8.1,2.5,1.5,-0.4,40.7204,-81.5338
11545,Glen Head,NY,1402426,Alto Potencial,99.6,9.1,7.4,2.7,-0.4,40.8281,-73.6076
13078,Jamesville,NY,395276,Alto Potencial,99.6,8.1,2.9,0.9,-1.8,42.983,-76.0766
17872,Shamokin,PA,54902,Alto Potencial,99.6,17.6,1.1,17.3,7.0,40.789,-76.5588
11797,Woodbury,NY,1367848,Alto Potencial,99.6,8.8,6.4,0.3,0.2,40.8154,-73.4716
7874,Stanhope,NJ,426311,Alto Potencial,99.6,8.4,2.8,1.2,0.5,,
54165,Seymour,WI,319008,Alto Potencial,99.6,9.5,3.1,0.7,-1.1,44.5091,-88.3172
17921,Ashland,PA,116216,Alto Potencial,99.6,8.1,1.4,7.3,-0.4,40.7732,-76.343
54495,Wisconsin Rapids,WI,158426,Alto Potencial,99.6,10.9,2.7,2.6,-1.0,44.3881,-89.9228
12202,Albany,NY,167108,Alto Potencial,99.6,10.0,2.8,9.2,-0.5,42.6413,-73.7641
7921,Bedminster,NJ,491552,Alto Potencial,99.6,9.1,3.5,1.1,2.9,,
6787,Thomaston,CT,336863,Alto Potencial,99.6,7.5,2.7,4.0,-0.2,,
6241,Killingly,CT,357283,Alto Potencial,99.6,9.6,3.8,4.3,-0.9,,
6249,Lebanon,CT,373049,Alto Potencial,99.6,7.2,3.0,5.5,-2.0,,
44307,Akron,OH,82069,Alto Potencial,99.6,12.4,2.4,7.1,0.6,41.0695,-81.5488
44703,Canton,OH,86554,Alto Potencial,99.6,15.8,2.2,9.0,5.5,40.8098,-81.3814
25530,Huntington,WV,126544,Alto Potencial,99.6,8.6,1.7,2.6,1.5,38.3569,-82.5255
36268,Munford,AL,190820,Alto Potencial,99.6,10.5,2.7,6.2,1.1,33.541,-85.9363
25703,Huntington,WV,67310,Alto Potencial,99.6,13.3,2.2,13.8,10.3,38.4211,-82.4227
44311,Akron,OH,80430,Alto Potencial,99.6,13.3,2.6,8.3,5.7,41.0638,-81.52
13865,Windsor,NY,174330,Alto Potencial,99.6,7.7,2.1,9.3,-1.6,42.0759,-75.6405
7068,Roseland,NJ,752047,Alto Potencial,99.6,9.3,4.0,0.4,2.0,,
13108,Marcellus,NY,309544,Alto Potencial,99.6,9.6,2.8,1.2,0.9,42.9821,-76.3323
60096,Winthrop Harbor,IL,259959,Alto Potencial,99.6,9.3,2.3,2.0,-1.0,42.4793,-87.8318
42347,Hartford,KY,142901,Alto Potencial,99.6,8.7,2.0,2.7,10.3,37.4785,-86.918
14568,Walworth,NY,275155,Alto Potencial,99.6,8.6,2.2,1.2,-0.9,43.1402,-77.2858
13211,Syracuse,NY,175005,Alto Potencial,99.6,11.6,2.1,1.8,2.6,43.1036,-76.1195
25159,Poca,WV,179784,Alto Potencial,99.6,8.0,2.8,5.3,-0.0,38.4791,-81.7838
14551,Sodus,NY,180425,Alto Potencial,99.6,13.4,2.7,6.6,4.2,43.2217,-77.0514
13166,Weedsport,NY,222388,Alto Potencial,99.6,7.1,2.5,3.5,0.1,43.0489,-76.5425
25545,Ona,WV,227683,Alto Potencial,99.6,9.6,2.2,5.2,0.8,38.4529,-82.2181
2717,Freetown,MA,576351,Alto Potencial,99.6,7.9,3.5,2.7,-0.9,,
7440,Pequannock,NJ,644182,Alto Potencial,99.6,8.7,3.6,0.0,4.2,,
44254,Lodi,OH,242815,Alto Potencial,99.6,7.8,3.3,2.6,-1.4,41.0327,-82.0147
60408,Braidwood,IL,266335,Alto Potencial,99.6,8.1,2.3,1.2,2.7,41.2657,-88.2231
8518,Florence,NJ,327613,Alto Potencial,99.6,8.1,2.7,1.5,-1.8,,
13084,La Fayette,NY,281826,Alto Potencial,99.6,7.4,2.7,1.5,-0.0,42.891,-76.1061
44504,Youngstown,OH,89057,Alto Potencial,99.6,23.0,1.7,9.4,3.6,41.1237,-80.6539
40828,Evarts,KY,58784,Alto Potencial,99.6,11.6,1.2,5.6,0.2,36.8398,-83.2233
41175,South Shore,KY,128341,Alto Potencial,99.6,11.9,2.3,6.6,1.5,38.7148,-82.9366
54426,Edgar,WI,240490,Alto Potencial,99.6,8.6,2.6,0.8,4.3,44.9046,-90.0125
48631,,MI,208910,Alto Potencial,99.6,8.5,2.3,3.5,0.1,43.6794,-83.9927
16232,Knox,PA,142217,Alto Potencial,99.6,8.9,2.1,5.9,3.5,41.2245,-79.5194
66608,Topeka,KS,105279,Alto Potencial,99.6,15.0,1.6,6.7,-0.2,39.0858,-95.6867
13132,Pennellville,NY,243365,Alto Potencial,99.6,9.6,2.8,4.4,0.4,43.2609,-76.2395
6231,Hebron,CT,424994,Alto Potencial,99.6,7.1,2.2,3.4,-0.2,,
53574,,WI,421511,Alto Potencial,99.6,8.1,3.5,2.6,-1.2,42.8143,-89.6437
14543,Rush,NY,343404,Alto Potencial,99.6,9.1,2.4,0.3,-0.9,42.9966,-77.6665
53960,,WI,310916,Alto Potencial,99.6,7.5,3.3,4.9,1.0,43.4231,-89.2354
27921,Camden,NC,378260,Alto Potencial,99.6,8.3,4.0,5.0,-0.1,36.325,-76.15
11749,Islandia,NY,578376,Alto Potencial,99.6,12.7,4.1,2.3,2.4,40.8067,-73.1709
43532,Liberty Center,OH,227009,Alto Potencial,99.6,9.3,2.3,1.0,-0.4,41.4514,-83.9859
71064,Plain Dealing,LA,114194,Alto Potencial,99.6,7.9,2.5,10.9,3.4,32.9074,-93.6905
14739,Friendship,NY,106988,Alto Potencial,99.6,13.6,1.9,17.0,-1.6,42.1907,-78.1359
30428,Glenwood,GA,148486,Alto Potencial,99.6,8.5,1.9,14.3,2.0,32.1572,-82.6759
45832,Convoy,OH,189988,Alto Potencial,99.6,9.8,2.2,1.4,1.5,40.927,-84.7238
44688,Waynesburg,OH,163624,Alto Potencial,99.6,8.8,2.4,2.8,4.7,40.6829,-81.2659
53036,,WI,436443,Alto Potencial,99.6,9.2,3.9,0.7,-2.3,43.1477,-88.5886
13131,Parish,NY,199843,Alto Potencial,99.6,10.7,2.5,3.6,-1.0,43.4153,-76.1
61038,Garden Prairie,IL,305449,Alto Potencial,99.6,9.9,3.7,2.3,-1.9,42.251,-88.7437
15845,Johnsonburg,PA,79322,Alto Potencial,99.6,11.7,1.0,6.1,10.3,41.4928,-78.6783
24067,Callaway,VA,303919,Alto Potencial,99.6,8.5,5.4,4.3,0.3,37.0285,-80.0496
14775,Ripley,NY,139567,Alto Potencial,99.6,9.0,2.3,12.0,-0.3,42.2482,-79.7121
63627,Bloomsdale,MO,283190,Alto Potencial,99.6,8.1,2.8,9.1,-0.8,38.0451,-90.2805
17981,Tremont,PA,103425,Alto Potencial,99.6,16.9,1.1,4.5,13.7,40.6343,-76.3905
37762,Jellico,TN,134999,Alto Potencial,99.6,9.4,2.4,7.2,-1.3,36.577,-84.126
66612,Topeka,KS,76113,Alto Potencial,99.6,13.4,2.1,11.5,0.7,39.0427,-95.6818
54486,,WI,224282,Alto Potencial,99.6,9.9,3.1,11.4,5.6,44.7299,-89.0569
54443,Junction City,WI,300841,Alto Potencial,99.6,12.5,2.8,8.9,-0.2,44.5963,-89.7438
3447,Fitzwilliam,NH,388078,Alto Potencial,99.6,11.5,3.5,13.6,-2.2,,
47561,Oaktown,IN,165555,Alto Potencial,99.6,10.7,3.2,7.6,2.4,38.8579,-87.3879
60034,Hebron,IL,292019,Alto Potencial,99.6,8.5,2.6,2.5,-0.8,42.4642,-88.4176
45306,Botkins,OH,245569,Alto Potencial,99.6,9.7,2.5,3.2,-1.6,40.4659,-84.178
45303,Ansonia,OH,164107,Alto Potencial,99.6,9.8,2.6,5.7,-0.7,40.2151,-84.6406
18850,Ulster,PA,215379,Alto Potencial,99.6,8.3,2.7,8.5,-0.6,41.8408,-76.4876
29448,Harleyville,SC,218662,Alto Potencial,99.6,11.8,3.0,5.9,2.9,33.2205,-80.4501
43771,Philo,OH,147109,Alto Potencial,99.6,10.7,2.3,4.9,5.4,39.8458,-81.9175
47163,Otisco,IN,270938,Alto Potencial,99.6,7.6,3.8,1.8,0.3,38.5423,-85.6647
13425,Oriskany Falls,NY,187306,Alto Potencial,99.6,11.2,2.5,3.6,-0.4,42.9576,-75.4838
46919,Converse,IN,165478,Alto Potencial,99.6,8.5,2.0,6.1,-0.1,40.577,-85.8763
49264,Onondaga,MI,243622,Alto Potencial,99.6,10.4,2.5,2.3,3.4,42.4487,-84.5535
43727,Chandlersville,OH,216680,Alto Potencial,99.6,8.3,3.2,2.6,1.6,39.8897,-81.8301
26159,Paden City,WV,111156,Alto Potencial,99.6,12.6,1.8,6.9,2.3,39.6044,-80.9265
46913,Bringhurst,IN,257644,Alto Potencial,99.6,8.6,2.6,3.1,-2.0,40.5163,-86.5204
44010,Austinburg,OH,257348,Alto Potencial,99.6,10.2,2.8,5.9,-1.8,41.7554,-80.8584
13607,Alexandria Bay,NY,241853,Alto Potencial,99.6,8.6,3.5,49.0,-1.2,44.3359,-75.9177
42325,Bremen,KY,135568,Alto Potencial,99.6,8.2,2.4,2.4,2.4,37.343,-87.233
14516,North Rose,NY,203730,Alto Potencial,99.6,12.2,2.4,10.7,6.3,43.1964,-76.9152
73015,Carnegie,OK,85220,Alto Potencial,99.6,10.8,1.8,13.1,5.0,35.1235,-98.5755
47393,Williamsburg,IN,229912,Alto Potencial,99.6,7.9,2.4,6.2,-2.8,39.958,-84.9984
46986,Swayzee,IN,178900,Alto Potencial,99.6,11.6,2.0,3.2,-0.1,40.5112,-85.8265
42464,White Plains,KY,138777,Alto Potencial,99.6,10.1,2.7,8.4,0.8,37.1788,-87.3644
17959,New Philadelphia,PA,87325,Alto Potencial,99.6,11.7,1.1,9.0,3.4,40.7195,-76.1158
42350,Island,KY,144260,Alto Potencial,99.6,9.2,1.7,6.5,-1.5,37.4471,-87.1692
47930,,IN,241841,Alto Potencial,99.6,10.2,3.4,4.2,2.2,40.247,-86.725
69360,Rushville,NE,126222,Alto Potencial,99.6,9.5,2.3,12.5,1.6,42.7379,-102.4657
25841,Flat Top,WV,213210,Alto Potencial,99.6,10.3,3.0,22.9,-3.3,37.55,-81.128
54427,Birnamwood,WI,221403,Alto Potencial,99.6,7.1,2.3,6.5,5.8,44.8309,-89.2461
24226,Clinchco,VA,83502,Alto Potencial,99.6,16.4,1.6,4.0,5.5,37.1406,-82.3425
47980,Reynolds,IN,187868,Alto Potencial,99.6,10.7,2.6,1.9,-1.1,40.7606,-86.8691
13303,Ava,NY,251337,Alto Potencial,99.6,8.8,2.5,3.2,-0.8,43.3445,-75.4509
58652,Richardton,ND,227461,Alto Potencial,99.6,10.0,2.6,11.9,0.6,46.8426,-102.292
67834,Bucklin,KS,138198,Alto Potencial,99.6,11.0,2.0,3.6,-1.9,37.553,-99.6325
56010,Amboy,MN,221386,Alto Potencial,99.6,8.3,2.3,6.0,-2.0,43.8903,-94.1774
41555,Kimper,KY,78073,Alto Potencial,99.6,13.0,1.1,11.1,-6.6,37.5466,-82.2621
47921,Boswell,IN,158864,Alto Potencial,99.6,14.1,1.6,3.7,-0.7,40.518,-87.3789
47859,,IN,215627,Alto Potencial,99.6,10.9,3.8,11.8,0.4,39.9062,-87.178
62087,,IL,101564,Alto Potencial,99.6,8.5,1.4,4.9,6.9,38.8225,-90.0583
66035,Highland,KS,143157,Alto Potencial,99.6,11.7,1.3,13.3,5.6,39.8608,-95.2583
63436,Center,MO,200554,Alto Potencial,99.6,8.3,2.7,18.7,-3.3,39.5154,-91.5398
68020,Decatur,NE,126599,Alto Potencial,99.6,21.4,1.9,18.5,8.0,41.9966,-96.2595
64071,Mayview,MO,210496,Alto Potencial,99.6,11.4,2.1,8.0,-7.0,39.0459,-93.8353
25820,Camp Creek,WV,222547,Alto Potencial,99.6,10.4,2.0,6.3,-2.1,37.4841,-81.1111
46133,Glenwood,IN,185565,Alto Potencial,99.6,10.2,2.8,1.5,-3.1,39.6124,-85.2735
64021,Corder,MO,172982,Alto Potencial,99.6,13.3,1.5,8.0,-3.4,39.1024,-93.6391
66937,Clifton,KS,126937,Alto Potencial,99.6,13.9,1.7,11.8,-0.3,39.6201,-97.2611
68827,Chapman,NE,284320,Alto Potencial,99.6,9.5,3.6,6.6,0.7,40.9856,-98.2217
61334,Lostant,IL,169932,Alto Potencial,99.6,7.6,1.5,3.5,1.5,41.145,-89.075
68939,Franklin,NE,122299,Alto Potencial,99.6,8.8,2.1,8.7,0.4,40.1052,-98.9469
40070,New Castle,KY,253279,Alto Potencial,99.6,11.2,3.6,9.0,-1.9,38.4921,-85.252
68981,Upland,NE,200387,Alto Potencial,99.6,11.7,3.2,19.2,4.2,40.3171,-98.8966
69122,Big Springs,NE,177915,Alto Potencial,99.6,9.4,2.4,8.1,-5.8,41.0696,-102.0933
66520,Olsburg,KS,271172,Alto Potencial,99.6,8.8,2.7,2.6,-1.9,39.4125,-96.6002
66864,Neosho Rapids,KS,178463,Alto Potencial,99.6,9.8,2.5,4.9,2.5,38.3948,-96.0168
46039,Russiaville,IN,208990,Alto Potencial,99.6,8.3,2.4,4.0,-2.2,40.3757,-86.3201
69043,Stratton,NE,156388,Alto Potencial,99.6,16.3,2.6,10.4,-0.1,40.1445,-101.2183
51446,Irwin,IA,148944,Alto Potencial,99.6,13.8,2.1,3.9,2.0,41.7751,-95.1919
67466,Miltonvale,KS,91719,Alto Potencial,99.6,13.4,1.4,12.0,3.1,39.3481,-97.4579
82244,Yoder,WY,328739,Alto Potencial,99.6,13.0,3.2,9.7,-4.8,41.912,-104.3535
69032,Hayes Center,NE,252424,Alto Potencial,99.6,15.2,3.4,15.8,7.5,40.5173,-101.0252
67849,Hanston,KS,122206,Alto Potencial,99.6,14.0,1.5,15.5,0.7,38.109,-99.6928
68932,Campbell,NE,106901,Alto Potencial,99.6,13.7,1.3,14.4,8.0,40.2967,-98.737
66940,Agenda,KS,118507,Alto Potencial,99.6,10.3,2.4,39.3,1.7,39.7975,-97.4496
66094,White Cloud,KS,130832,Alto Potencial,99.6,15.6,2.0,22.4,8.5,39.9627,-95.2982
68973,Roseland,NE,233924,Alto Potencial,99.6,7.9,3.0,1.8,0.2,40.4591,-98.5551
3601,Acworth,NH,359281,Alto Potencial,99.6,10.6,3.6,13.0,-2.5,,
61564,Pekin,IL,101108,Alto Potencial,99.6,16.9,1.2,3.5,6.5,40.4945,-89.6518
25921,Sophia,WV,113194,Alto Potencial,99.6,9.8,2.7,11.3,-0.1,37.7076,-81.2507
67454,,KS,103971,Alto Potencial,99.6,12.4,1.4,11.6,2.6,38.7091,-98.1575
59472,Sand Coulee,MT,271222,Alto Potencial,99.6,13.4,3.7,8.4,-4.1,47.4021,-111.1661
66008,Bendena,KS,210442,Alto Potencial,99.6,14.1,2.0,9.6,-0.3,39.7174,-95.1765
67739,Herndon,KS,82915,Alto Potencial,99.6,12.0,1.2,17.0,1.8,39.9036,-100.8139
18079,Slatedale,PA,239150,Alto Potencial,99.6,8.1,1.6,5.1,-0.4,40.7455,-75.6592
48476,Vernon,MI,152146,Alto Potencial,99.6,9.5,1.8,4.8,6.3,42.9406,-84.0328
15466,Newell,PA,74172,Alto Potencial,99.6,8.1,1.3,5.3,4.1,40.0751,-79.8943
45819,Buckland,OH,138415,Alto Potencial,99.6,9.7,1.6,2.0,3.5,40.6241,-84.2603
45360,Port Jefferson,OH,128024,Alto Potencial,99.6,16.4,2.3,18.5,10.1,40.3307,-84.0926
44815,Bettsville,OH,131144,Alto Potencial,99.6,7.0,1.8,1.4,-0.6,41.2469,-83.2398
13314,Brookfield,NY,144753,Alto Potencial,99.6,16.5,3.3,19.3,-0.4,42.8128,-75.3177
15082,McDonald,PA,183136,Alto Potencial,99.6,8.3,1.4,0.0,1.3,40.3863,-80.2083
44060,Mentor,OH,260752,Alto Potencial,99.5,7.1,2.7,2.1,-0.9,41.6895,-81.3421
7047,North Bergen Township,NJ,600640,Alto Potencial,99.5,12.3,6.7,2.0,4.8,,
43302,Marion,OH,156273,Alto Potencial,99.5,7.4,2.5,4.2,-1.4,40.5876,-83.1271
6457,Middletown,CT,334442,Alto Potencial,99.5,8.8,3.8,2.8,-0.3,,
11590,Westbury,NY,750873,Alto Potencial,99.5,8.1,4.4,0.7,-0.5,40.7557,-73.5723
7666,Teaneck,NJ,656010,Alto Potencial,99.5,10.8,4.1,1.1,1.9,,
8857,Old Bridge,NJ,604853,Alto Potencial,99.5,9.4,5.0,0.9,-0.1,,
7011,Clifton,NJ,547840,Alto Potencial,99.5,11.0,6.1,1.3,2.2,,
6106,Hartford,CT,213250,Alto Potencial,99.5,10.1,3.6,5.5,1.7,,
60090,Wheeling,IL,290840,Alto Potencial,99.5,7.7,2.9,2.0,2.1,42.134,-87.9341
46901,Kokomo,IN,152162,Alto Potencial,99.5,11.6,2.1,6.2,-1.4,40.4988,-86.1453
7026,Garfield,NJ,559489,Alto Potencial,99.5,9.4,6.4,2.1,1.7,,
45503,Springfield,OH,182773,Alto Potencial,99.5,8.8,2.8,4.3,-2.0,39.9528,-83.7804
11530,Garden City,NY,1167106,Alto Potencial,99.5,8.6,5.1,2.3,1.2,40.7245,-73.6487
14626,Rochester,NY,261058,Alto Potencial,99.5,7.6,2.8,2.6,-2.2,43.2126,-77.704
45662,Portsmouth,OH,95767,Alto Potencial,99.5,8.7,2.2,6.4,-2.3,38.7932,-82.9306
44129,Parma,OH,192814,Alto Potencial,99.5,7.4,2.4,2.4,-0.9,41.3897,-81.7351
2861,Pawtucket,RI,387384,Alto Potencial,99.5,8.4,3.9,2.4,-2.3,,
6114,Hartford,CT,206420,Alto Potencial,99.5,9.2,3.6,5.4,-1.9,,
7644,Lodi,NJ,579049,Alto Potencial,99.5,8.6,5.9,1.9,1.1,,
45133,Hillsboro,OH,195065,Alto Potencial,99.5,9.3,2.9,5.8,-2.8,39.1679,-83.6064
10512,Carmel,NY,479425,Alto Potencial,99.5,8.0,3.3,2.9,-1.1,41.4432,-73.6815
7071,Lyndhurst,NJ,604296,Alto Potencial,99.5,10.0,4.6,2.1,3.9,,
14456,Geneva,NY,214810,Alto Potencial,99.5,7.6,2.4,4.6,-0.4,42.8637,-76.9913
8052,Maple Shade Township,NJ,324564,Alto Potencial,99.5,7.7,3.5,3.1,0.3,,
13901,Binghamton,NY,185552,Alto Potencial,99.5,7.9,2.9,7.6,-1.8,42.1463,-75.8865
8812,Dunellen,NJ,574275,Alto Potencial,99.5,9.4,4.1,2.6,0.6,,
14610,Rochester,NY,313115,Alto Potencial,99.5,7.5,3.1,4.2,0.3,43.1452,-77.5495
27055,Yadkinville,NC,242472,Alto Potencial,99.5,9.0,3.3,6.4,-1.2,36.1277,-80.653
11949,Manorville,NY,660235,Alto Potencial,99.5,7.8,4.1,1.2,-0.4,40.8421,-72.8002
7660,Ridgefield Park,NJ,572640,Alto Potencial,99.5,8.9,5.0,2.1,2.4,,
14608,Rochester,NY,110346,Alto Potencial,99.5,13.0,2.3,7.8,9.4,43.1521,-77.6258
47978,Rensselaer,IN,232571,Alto Potencial,99.5,8.4,2.8,3.6,-2.4,40.9948,-87.1037
46803,Fort Wayne,IN,101633,Alto Potencial,99.5,14.5,2.3,4.6,7.1,41.0695,-85.1074
13492,Whitesboro,NY,241534,Alto Potencial,99.5,8.0,2.5,1.7,-2.4,43.1158,-75.3095
29574,Mullins,SC,130492,Alto Potencial,99.5,10.5,3.2,9.9,13.0,34.2044,-79.2542
13904,Binghamton,NY,148743,Alto Potencial,99.5,7.8,2.2,3.5,-2.5,42.1171,-75.8653
7075,Wood Ridge,NJ,654480,Alto Potencial,99.5,9.1,4.3,0.7,1.6,,
42748,Hodgenville,KY,210717,Alto Potencial,99.5,8.0,2.6,3.5,-3.2,37.5746,-85.7232
44710,Canton,OH,117606,Alto Potencial,99.5,9.7,2.1,4.6,-1.6,40.7911,-81.4169
18651,Plymouth,PA,141607,Alto Potencial,99.5,12.0,2.8,10.1,-5.7,41.2458,-75.9481
44047,Jefferson,OH,212332,Alto Potencial,99.5,11.4,3.0,3.6,-1.6,41.7335,-80.7562
7624,Closter,NJ,1058764,Alto Potencial,99.5,7.9,4.8,1.1,-0.5,,
46923,Delphi,IN,215494,Alto Potencial,99.5,8.2,3.1,6.5,-2.0,40.5734,-86.6788
8051,Mantua,NJ,297369,Alto Potencial,99.5,7.5,2.5,0.7,-2.1,,
6379,Stonington,CT,437999,Alto Potencial,99.5,8.7,4.2,3.3,0.2,,
53014,Chilton,WI,268331,Alto Potencial,99.5,8.7,3.0,4.4,-0.2,44.0242,-88.1827
25880,Bradley,WV,127416,Alto Potencial,99.5,8.5,2.3,4.4,-2.4,37.8782,-81.2058
8558,Skillman,NJ,1013322,Alto Potencial,99.5,7.6,3.5,1.7,-1.3,,
45304,Arcanum,OH,220049,Alto Potencial,99.5,9.0,2.6,1.5,-2.9,39.9888,-84.5312
53010,Campbellsport,WI,349380,Alto Potencial,99.5,7.4,3.2,4.6,-1.0,43.6042,-88.2729
7432,Midland Park,NJ,688099,Alto Potencial,99.5,9.0,4.2,1.6,2.3,,
53954,Pardeeville,WI,330680,Alto Potencial,99.5,7.8,3.5,4.6,-0.5,43.534,-89.3265
17976,Shenandoah,PA,56145,Alto Potencial,99.5,22.7,0.8,15.1,8.5,40.8167,-76.2035
7677,Woodcliff Lake,NJ,1142421,Alto Potencial,99.5,8.6,4.6,1.6,-0.7,,
54110,Brillion,WI,288203,Alto Potencial,99.5,8.0,2.9,2.2,-1.5,44.1779,-88.0833
23924,Chase City,VA,144449,Alto Potencial,99.5,10.9,2.7,14.2,1.5,36.8053,-78.4553
49802,Kingsford,MI,141505,Alto Potencial,99.5,7.6,1.9,2.1,4.2,45.8006,-88.0773
54983,Weyauwega,WI,262035,Alto Potencial,99.5,8.5,3.3,5.8,-0.9,44.321,-88.941
60954,Momence,IL,163956,Alto Potencial,99.5,7.9,2.4,3.1,5.3,41.1593,-87.6575
54484,Stratford,WI,242436,Alto Potencial,99.5,8.0,3.0,1.8,2.5,44.7899,-90.0583
24279,Pound,VA,121604,Alto Potencial,99.5,10.0,2.5,5.6,-1.2,37.0927,-82.6016
6043,Bolton,CT,402156,Alto Potencial,99.5,7.8,2.7,1.2,-1.1,,
6375,Waterford,CT,370252,Alto Potencial,99.5,7.5,3.0,4.0,-0.7,,
8089,Waterford Works,NJ,325582,Alto Potencial,99.5,8.5,2.2,2.0,1.1,,
46740,Geneva,IN,238913,Alto Potencial,99.5,8.0,3.4,2.9,-1.1,40.6071,-84.9621
8880,South Bound Brook,NJ,459443,Alto Potencial,99.5,8.6,3.8,0.8,-0.3,,
46554,North Liberty,IN,243527,Alto Potencial,99.5,7.4,2.8,2.5,-1.8,41.5425,-86.4133
62995,Vienna,IL,187306,Alto Potencial,99.5,9.2,2.7,5.4,4.4,37.4205,-88.8879
18421,Forest City,PA,195977,Alto Potencial,99.5,11.9,2.4,7.7,-4.6,41.6515,-75.4666
13167,West Monroe,NY,248334,Alto Potencial,99.5,8.2,2.9,2.4,-1.3,43.2882,-76.0797
47838,Carlisle,IN,146898,Alto Potencial,99.5,10.5,2.0,3.5,0.2,38.9763,-87.3667
13833,Port Crane,NY,192239,Alto Potencial,99.5,8.8,2.8,6.3,-1.2,42.1958,-75.7591
53020,Rhine,WI,422599,Alto Potencial,99.5,9.8,4.0,9.8,1.5,43.8436,-87.9767
14125,Oakfield,NY,179124,Alto Potencial,99.5,9.5,2.4,0.6,0.0,43.0717,-78.2702
8829,High Bridge,NJ,420826,Alto Potencial,99.5,8.5,3.1,0.3,1.5,,
59474,Shelby,MT,173794,Alto Potencial,99.5,12.0,2.7,8.2,-2.0,48.5037,-111.8391
66090,,MO,161504,Alto Potencial,99.5,10.8,1.7,11.1,-2.1,39.7625,-94.9255
44626,East Sparta,OH,185416,Alto Potencial,99.5,8.0,2.0,5.6,3.5,40.6971,-81.3687
47581,Shoals,IN,177830,Alto Potencial,99.5,10.1,2.6,11.8,-1.9,38.6791,-86.7761
43570,West Unity,OH,178738,Alto Potencial,99.5,7.9,2.6,4.5,-2.1,41.5756,-84.4421
27937,Gates,NC,239732,Alto Potencial,99.5,16.7,3.0,2.7,2.9,36.5036,-76.7646
7641,Haworth,NJ,1047817,Alto Potencial,99.5,9.7,3.8,4.0,1.3,,
43358,West Mansfield,OH,258665,Alto Potencial,99.5,7.5,2.5,1.2,3.7,40.4043,-83.5243
46938,Jonesboro,IN,148214,Alto Potencial,99.5,11.6,2.9,3.4,-3.5,40.4815,-85.6365
6089,Simsbury,CT,438118,Alto Potencial,99.5,7.5,2.8,0.8,-1.0,,
29437,Harleyville,SC,241335,Alto Potencial,99.5,9.9,3.6,6.8,4.7,33.1247,-80.4034
45882,Rockford,OH,207286,Alto Potencial,99.5,7.4,2.5,6.8,-0.0,40.6771,-84.6642
69343,,NE,133277,Alto Potencial,99.5,11.8,2.1,10.5,-3.7,42.8068,-102.2049
47513,Birdseye,IN,150836,Alto Potencial,99.5,7.7,2.1,13.0,7.3,38.3006,-86.7102
8026,Gibbsboro,NJ,362746,Alto Potencial,99.5,8.4,3.1,2.3,-1.8,,
56128,,MN,236720,Alto Potencial,99.5,11.7,2.9,2.4,-0.1,43.8824,-96.1463
13063,Fabius,NY,294268,Alto Potencial,99.5,9.2,3.0,0.9,1.1,42.8531,-75.9836
53576,Orfordville,WI,281259,Alto Potencial,99.5,8.5,3.3,1.3,-2.0,42.6278,-89.2533
13490,Westmoreland,NY,239009,Alto Potencial,99.5,9.6,2.1,0.0,-2.0,43.1017,-75.4533
52553,Eddyville,IA,177190,Alto Potencial,99.5,8.8,2.5,3.6,-3.7,41.1533,-92.6221
54247,Whitelaw,WI,280873,Alto Potencial,99.5,10.6,3.0,2.1,1.6,44.1573,-87.8267
58552,Linton,ND,140937,Alto Potencial,99.5,16.6,2.0,15.3,2.6,46.1855,-100.2331
47030,Metamora,IN,249659,Alto Potencial,99.5,8.6,3.6,5.1,1.0,39.4288,-85.1504
60112,Dekalb,IL,265132,Alto Potencial,99.5,7.3,2.8,1.7,-0.4,41.92,-88.6887
25559,Salt Rock,WV,152643,Alto Potencial,99.5,12.0,4.0,1.5,3.0,38.3265,-82.247
42458,Spottsville,KY,166144,Alto Potencial,99.5,8.8,2.5,7.5,3.0,37.8399,-87.4247
67029,Coldwater,KS,83875,Alto Potencial,99.5,15.9,1.4,12.6,4.5,37.2479,-99.3115
13072,Georgetown,NY,129419,Alto Potencial,99.5,11.4,2.4,17.1,4.1,42.7631,-75.7443
42324,Belton,KY,152301,Alto Potencial,99.5,14.8,2.2,3.5,9.8,37.1511,-86.9774
40927,Holmes Mill,KY,59799,Alto Potencial,99.5,11.8,1.0,14.0,-1.6,36.8713,-83.0414
67839,Dighton,KS,104701,Alto Potencial,99.5,16.8,1.6,13.4,0.6,38.4742,-100.4647
68647,Monroe,NE,258555,Alto Potencial,99.5,8.2,2.3,5.5,-0.7,41.4783,-97.6061
23828,Branchville,VA,180962,Alto Potencial,99.5,10.5,2.8,14.7,-0.1,36.5787,-77.2704
66532,,KS,157793,Alto Potencial,99.5,11.5,1.9,2.6,-3.0,39.8182,-95.4567
54922,Bear Creek,WI,239039,Alto Potencial,99.5,9.3,2.8,3.0,1.6,44.5348,-88.7404
13486,,NY,198038,Alto Potencial,99.5,9.8,2.1,11.3,-2.2,43.3294,-75.3151
41255,Flatgap,KY,122290,Alto Potencial,99.5,11.6,2.3,13.1,-6.0,37.8922,-82.8446
40442,Kings Mountain,KY,158058,Alto Potencial,99.5,11.1,3.6,9.8,-4.6,37.3818,-84.7148
56667,Puposky,MN,220780,Alto Potencial,99.5,7.3,2.3,12.3,2.0,47.7436,-94.9803
47597,Wheatland,IN,161961,Alto Potencial,99.5,9.7,2.0,4.9,0.2,38.6671,-87.3062
47866,Pimento,IN,189726,Alto Potencial,99.5,11.9,1.9,0.0,4.6,39.2929,-87.3355
56039,Granada,MN,307457,Alto Potencial,99.5,8.1,3.1,7.6,1.6,43.7061,-94.3307
13028,Bernhards Bay,NY,208540,Alto Potencial,99.5,11.9,1.9,30.9,0.8,43.2717,-75.9373
65025,Clarksburg,MO,212834,Alto Potencial,99.5,10.7,3.5,7.4,-2.1,38.6432,-92.6729
67876,Spearville,KS,218498,Alto Potencial,99.5,11.0,2.6,0.8,-2.8,37.8235,-99.737
47325,Brownsville,IN,192969,Alto Potencial,99.5,9.4,2.2,0.0,0.6,39.6845,-84.9881
66510,Melvern,KS,189690,Alto Potencial,99.5,10.9,2.9,7.4,-2.4,38.5027,-95.629
56019,Comfrey,MN,253351,Alto Potencial,99.5,9.3,3.2,9.8,-1.2,44.1111,-94.9134
47175,Taswell,IN,182449,Alto Potencial,99.5,9.1,2.4,29.7,-2.1,38.3463,-86.5387
68938,Fairfield,NE,174249,Alto Potencial,99.5,8.2,2.1,10.5,-1.8,40.4285,-98.1063
64459,Helena,MO,242155,Alto Potencial,99.5,9.6,2.6,8.2,2.5,39.9295,-94.6465
44689,Dundee,OH,213007,Alto Potencial,99.5,7.0,1.9,5.0,1.8,40.6567,-81.6352
66953,Linn,KS,182738,Alto Potencial,99.5,16.2,2.7,4.7,-1.9,39.6847,-97.0854
47525,Derby,IN,218268,Alto Potencial,99.5,8.3,2.7,10.9,-3.4,38.0239,-86.577
67745,McDonald,KS,110831,Alto Potencial,99.5,14.1,1.1,8.0,-2.4,39.7923,-101.3227
67353,Moline,KS,64704,Alto Potencial,99.5,14.1,1.2,14.5,9.2,37.3649,-96.3069
14441,Dresden,NY,247624,Alto Potencial,99.5,10.6,3.1,25.1,-1.5,42.6846,-76.9564
44035,Elyria,OH,175735,Alto Potencial,99.4,8.4,2.8,4.5,-2.5,41.3724,-82.1051
43701,Zanesville,OH,193739,Alto Potencial,99.4,7.9,3.0,4.9,-1.4,39.9274,-82.0041
95124,San Jose,CA,1916681,Alto Potencial,99.4,10.0,8.4,1.2,-0.0,37.2563,-121.9229
60563,Naperville,IL,432942,Alto Potencial,99.4,7.0,3.5,1.8,2.1,41.7895,-88.169
11554,East Meadow,NY,744417,Alto Potencial,99.4,8.1,5.1,1.1,-0.1,40.7149,-73.5561
15068,New Kensington,PA,160587,Alto Potencial,99.4,7.0,2.1,5.3,4.9,40.5616,-79.7129
2760,North Attleboro,MA,586281,Alto Potencial,99.4,7.6,4.6,0.9,-0.5,,
13090,Liverpool,NY,275247,Alto Potencial,99.4,9.2,2.5,1.3,-0.8,43.1528,-76.2235
44128,Warrensville Heights,OH,101580,Alto Potencial,99.4,11.0,2.1,5.9,-4.1,41.4416,-81.5486
13210,Syracuse,NY,236564,Alto Potencial,99.4,8.4,5.0,8.6,1.5,43.0354,-76.1282
11729,Deer Park,NY,650428,Alto Potencial,99.4,10.1,4.0,1.7,1.0,40.7591,-73.3257
11010,Franklin Square,NY,762791,Alto Potencial,99.4,8.4,4.8,0.8,0.5,40.701,-73.6758
53222,Milwaukee,WI,244821,Alto Potencial,99.4,7.2,2.9,4.1,-0.9,43.0828,-88.0269
53916,Beaver Dam,WI,267217,Alto Potencial,99.4,8.3,3.2,2.5,-0.9,43.4616,-88.8407
43160,Washington Court House,OH,219080,Alto Potencial,99.4,7.9,3.3,4.2,-1.0,39.537,-83.455
54902,Oshkosh,WI,214147,Alto Potencial,99.4,7.7,2.9,3.6,-1.5,43.9946,-88.526
7094,Secaucus,NJ,628297,Alto Potencial,99.4,9.8,4.1,2.7,2.9,,
12144,Rensselaer,NY,294443,Alto Potencial,99.4,7.2,2.9,4.3,-1.8,42.6359,-73.7219
44446,Niles,OH,121706,Alto Potencial,99.4,8.9,2.1,5.6,-4.2,41.1824,-80.7558
10509,Brewster,NY,499744,Alto Potencial,99.4,7.3,3.6,2.6,-1.1,41.4097,-73.5992
7506,Hawthorne,NJ,598770,Alto Potencial,99.4,8.0,4.4,2.2,1.5,,
7081,Springfield,NJ,680404,Alto Potencial,99.4,9.0,3.8,1.3,5.2,,
7005,Boonton,NJ,686664,Alto Potencial,99.4,7.1,4.7,2.4,0.8,,
40203,Louisville,KY,143774,Alto Potencial,99.4,8.9,3.9,10.2,3.1,38.2493,-85.7694
46992,Wabash,IN,167994,Alto Potencial,99.4,8.9,2.2,3.9,-1.7,40.7909,-85.8321
10804,New Rochelle,NY,1092271,Alto Potencial,99.4,8.1,4.2,0.4,-0.2,40.9491,-73.7863
61114,Rockford,IL,245863,Alto Potencial,99.4,9.7,2.5,1.7,-2.2,42.3185,-88.9972
48084,Troy,MI,460522,Alto Potencial,99.4,7.5,3.8,2.7,-0.2,42.5627,-83.1799
22181,Vienna,VA,1080131,Alto Potencial,99.4,8.2,4.5,0.8,1.4,38.8977,-77.288
70775,Saint Francisville,LA,376941,Alto Potencial,99.4,9.8,4.3,11.0,-0.9,30.8694,-91.4186
1331,Athol,MA,339425,Alto Potencial,99.4,8.5,4.1,4.5,-1.4,,
6416,Cromwell,CT,346578,Alto Potencial,99.4,7.3,2.8,2.9,-0.2,,
11742,Holtsville,NY,608666,Alto Potencial,99.4,8.4,4.1,0.8,1.7,40.8105,-73.0416
18643,Exeter,PA,209144,Alto Potencial,99.4,8.1,3.0,4.9,-1.6,41.3665,-75.8362
25309,South Charleston,WV,168982,Alto Potencial,99.4,7.5,2.8,4.1,-0.9,38.3684,-81.6996
45648,Lucasville,OH,158102,Alto Potencial,99.4,8.4,2.0,5.5,-1.8,38.8938,-82.994
25071,Elkview,WV,185415,Alto Potencial,99.4,8.7,2.4,5.5,-0.2,38.4429,-81.4804
7821,Byram Township,NJ,497236,Alto Potencial,99.4,8.0,2.9,3.4,0.1,,
53168,Salem,WI,335509,Alto Potencial,99.4,8.1,2.8,3.3,-1.6,42.5709,-88.1287
49837,Gladstone,MI,192832,Alto Potencial,99.4,12.1,2.5,4.8,2.4,45.8813,-87.1152
44890,Willard,OH,160692,Alto Potencial,99.4,6.9,2.2,5.3,-0.4,41.0628,-82.7288
50801,Creston,IA,142680,Alto Potencial,99.4,9.1,2.3,7.2,-1.4,41.0499,-94.3471
61953,Tuscola,IL,164725,Alto Potencial,99.4,7.8,1.8,1.9,1.0,39.7995,-88.2816
63461,Palmyra,MO,222100,Alto Potencial,99.4,10.5,2.8,6.1,-1.8,39.7913,-91.5368
44730,East Canton,OH,183664,Alto Potencial,99.4,7.4,2.2,2.9,1.7,40.7873,-81.2826
49046,Delton,MI,248260,Alto Potencial,99.4,7.6,2.6,11.7,-1.4,42.5141,-85.4067
54208,Denmark,WI,356307,Alto Potencial,99.4,9.3,3.4,1.1,-1.4,44.3594,-87.827
14432,Clifton Springs,NY,241513,Alto Potencial,99.4,7.5,3.0,4.0,-1.5,42.9632,-77.144
25306,Charleston,WV,96883,Alto Potencial,99.4,10.3,1.3,8.8,-2.8,38.3175,-81.5274
47438,Jasonville,IN,132814,Alto Potencial,99.4,11.3,2.5,3.6,-3.6,39.1723,-87.2023
14514,North Chili,NY,305892,Alto Potencial,99.4,8.4,3.2,2.1,-1.9,43.1186,-77.8005
7027,Garwood,NJ,655207,Alto Potencial,99.4,9.1,5.5,0.8,0.6,,
8554,Roebling,NJ,298907,Alto Potencial,99.4,7.6,3.0,1.5,-2.3,,
46932,Galveston,IN,196570,Alto Potencial,99.4,9.0,2.5,3.2,-2.7,40.5862,-86.1972
13478,Verona,NY,218381,Alto Potencial,99.4,8.1,2.5,3.3,-1.9,43.1473,-75.5724
37079,Indian Mound,TN,261335,Alto Potencial,99.4,8.6,2.6,5.6,-0.9,36.4946,-87.6804
54949,Manawa,WI,238467,Alto Potencial,99.4,8.9,2.5,6.3,-1.9,44.4701,-88.9164
47024,Laurel,IN,231261,Alto Potencial,99.4,10.3,3.4,3.7,2.2,39.4916,-85.208
49807,Bark River,MI,209640,Alto Potencial,99.4,9.6,2.6,9.5,-1.3,45.6956,-87.2073
26415,Pennsboro,WV,111424,Alto Potencial,99.4,10.4,1.6,8.7,1.3,39.2791,-81.0019
43318,De Graff,OH,234060,Alto Potencial,99.4,8.5,2.5,1.5,2.5,40.3058,-83.9153
72070,Houston,AR,171440,Alto Potencial,99.4,9.0,1.7,13.1,2.6,35.0362,-92.6913
13495,Yorkville,NY,184233,Alto Potencial,99.4,8.1,2.6,2.5,-3.1,43.1116,-75.2756
22610,Bentonville,VA,438834,Alto Potencial,99.4,10.0,4.7,6.8,2.2,38.8187,-78.2757
12183,Troy,NY,228084,Alto Potencial,99.4,8.9,2.9,9.2,-1.7,42.746,-73.6943
24256,Birchleaf,VA,96412,Alto Potencial,99.4,10.6,1.8,15.2,2.7,37.2206,-82.2853
13030,Bridgeport,NY,241581,Alto Potencial,99.4,10.8,2.6,9.9,-2.9,43.159,-75.97
46940,La Fontaine,IN,190843,Alto Potencial,99.4,10.3,2.4,6.2,-1.1,40.6909,-85.6971
25825,Cool Ridge,WV,217063,Alto Potencial,99.4,10.5,3.1,1.0,-2.4,37.6655,-81.0933
13461,Sherrill,NY,232681,Alto Potencial,99.4,7.6,2.3,1.6,-2.7,43.0704,-75.599
14715,Bolivar,NY,97746,Alto Potencial,99.4,13.9,1.7,11.5,-3.4,42.0704,-78.1448
14826,Cohocton,NY,151475,Alto Potencial,99.4,7.8,2.0,12.0,-2.0,42.5003,-77.4998
47977,Remington,IN,210384,Alto Potencial,99.4,7.7,2.4,2.9,-2.1,40.7667,-87.1599
45827,Cloverdale,OH,249373,Alto Potencial,99.4,9.9,2.6,3.0,-1.8,41.0379,-84.2938
44412,Diamond,OH,276082,Alto Potencial,99.4,7.5,2.4,1.6,-1.1,41.0935,-81.0425
27926,Corapeake,NC,266085,Alto Potencial,99.4,16.8,4.0,5.1,2.1,36.5179,-76.5979
46951,Macy,IN,164659,Alto Potencial,99.4,10.0,2.8,16.0,-2.7,40.9618,-86.1264
7439,Ogdensburg,NJ,417824,Alto Potencial,99.4,8.6,3.3,5.7,-1.4,,
13112,Memphis,NY,253149,Alto Potencial,99.4,7.7,2.8,6.3,0.8,43.0934,-76.403
45877,Pandora,OH,214691,Alto Potencial,99.4,11.2,2.7,0.3,-0.3,40.9509,-83.9521
47995,Wolcott,IN,203009,Alto Potencial,99.4,8.1,2.2,2.8,-2.1,40.7516,-87.029
64671,Polo,MO,264638,Alto Potencial,99.4,9.7,3.3,14.7,-1.6,39.5647,-94.0743
53007,Butler,WI,273262,Alto Potencial,99.4,8.4,4.3,2.8,2.7,43.1054,-88.071
44082,Pierpont,OH,178967,Alto Potencial,99.4,12.0,3.5,12.0,1.2,41.7677,-80.5741
42202,Adairville,KY,183728,Alto Potencial,99.4,7.7,2.4,8.5,-2.0,36.6914,-86.8585
45148,Midland,OH,238682,Alto Potencial,99.4,8.0,3.0,1.1,-1.6,39.2917,-83.8931
13034,Cayuga,NY,283052,Alto Potencial,99.4,7.6,2.4,14.8,-0.4,42.9142,-76.7024
53137,Helenville,WI,431964,Alto Potencial,99.4,7.5,3.3,0.7,-0.7,43.009,-88.6726
12167,Stamford,NY,228911,Alto Potencial,99.4,11.3,3.3,23.1,-3.3,42.4174,-74.6098
66411,Blue Rapids,KS,102655,Alto Potencial,99.4,8.4,1.6,4.4,-2.0,39.675,-96.6359
61741,Forrest,IL,146474,Alto Potencial,99.4,10.6,1.5,2.3,-2.5,40.7513,-88.4111
44032,Dorset,OH,174917,Alto Potencial,99.4,12.7,2.7,1.0,1.2,41.659,-80.6683
43549,Ney,OH,189125,Alto Potencial,99.4,8.0,2.0,6.1,-1.3,41.3781,-84.5269
54471,Ringle,WI,321409,Alto Potencial,99.4,7.8,3.3,0.6,-0.3,44.9238,-89.4328
61733,Mackinaw,IL,165834,Alto Potencial,99.4,8.1,1.6,4.4,0.8,40.6224,-89.3323
54864,Poplar,WI,283000,Alto Potencial,99.4,8.8,3.1,6.9,0.1,46.5771,-91.8253
67154,Whitewater,KS,229185,Alto Potencial,99.4,12.1,3.2,1.9,-3.0,37.9612,-97.1308
13328,Deansboro,NY,255460,Alto Potencial,99.4,8.5,2.4,1.2,-3.3,42.9818,-75.4383
61759,Minier,IL,157872,Alto Potencial,99.4,7.5,1.6,6.7,-1.0,40.4359,-89.3165
45340,Maplewood,OH,264283,Alto Potencial,99.4,8.8,2.5,6.9,-0.8,40.3643,-84.0565
52032,Bernard,IA,274489,Alto Potencial,99.4,8.3,2.9,7.0,0.5,42.3321,-90.863
44093,Williamsfield,OH,161997,Alto Potencial,99.4,10.2,1.9,19.5,-3.3,41.5383,-80.5964
48762,Spruce,MI,204461,Alto Potencial,99.4,9.1,2.6,52.3,2.9,44.8224,-83.5044
55991,Zumbro Falls,MN,386644,Alto Potencial,99.4,10.0,3.8,3.8,-0.1,44.2427,-92.4256
52561,Fremont,IA,164059,Alto Potencial,99.4,9.8,2.2,5.2,-2.9,41.2117,-92.4362
69210,Ainsworth,NE,143471,Alto Potencial,99.4,12.9,2.4,14.7,-0.8,42.5403,-99.8615
50680,Wellsburg,IA,157802,Alto Potencial,99.4,9.3,1.9,3.2,-1.3,42.4494,-92.9398
73092,Verden,OK,116872,Alto Potencial,99.4,9.3,2.1,9.3,-1.6,35.0836,-98.0792
60948,Loda,IL,244144,Alto Potencial,99.4,7.8,2.5,7.3,-1.0,40.5241,-88.0927
8326,Landisville,NJ,297576,Alto Potencial,99.4,8.4,3.3,3.7,-2.8,,
22931,Covesville,VA,387815,Alto Potencial,99.4,8.4,3.1,41.1,-0.0,37.908,-78.7127
61777,Clinton,IL,164550,Alto Potencial,99.4,9.4,1.6,2.1,-0.2,40.2323,-88.9673
64017,Henrietta,MO,210461,Alto Potencial,99.4,9.7,2.7,22.2,1.3,39.2048,-94.0259
6024,Canaan,CT,342821,Alto Potencial,99.4,8.4,3.5,6.1,-2.1,,
68626,Brainard,NE,263958,Alto Potencial,99.4,8.1,2.3,7.2,-2.2,41.1832,-96.9882
68665,Spalding,NE,244432,Alto Potencial,99.4,11.3,3.7,13.3,-3.9,41.6874,-98.3715
67430,Cawker City,KS,102380,Alto Potencial,99.4,10.0,1.7,16.9,0.1,39.5115,-98.4335
56132,Garvin,MN,277444,Alto Potencial,99.4,9.3,3.3,28.9,-0.7,44.2293,-95.7672
66966,Scandia,KS,119546,Alto Potencial,99.4,10.0,2.1,12.1,-0.5,39.7939,-97.7786
82083,Rock River,WY,193322,Alto Potencial,99.4,16.7,3.5,14.7,3.5,41.7461,-105.9746
68448,Talmage,NE,166666,Alto Potencial,99.4,7.5,2.0,8.4,-1.0,40.5586,-96.0138
47855,Hymera,IN,83871,Alto Potencial,99.4,17.9,1.6,5.9,0.9,39.1833,-87.2994
43036,Magnetic Springs,OH,156138,Alto Potencial,99.4,8.6,2.1,1.5,6.8,40.3528,-83.2634
14537,Port Gibson,NY,182393,Alto Potencial,99.3,12.2,3.6,0.0,3.4,43.0345,-77.1575
11746,South Huntington,NY,764447,Alto Potencial,99.3,9.1,4.0,1.3,0.2,40.8143,-73.3634
92780,Tustin,CA,1123496,Alto Potencial,99.3,10.5,9.4,1.7,-1.2,33.7364,-117.8229
60123,Elgin,IL,290793,Alto Potencial,99.3,7.5,2.9,1.3,-0.6,42.0376,-88.3186
60133,Hanover Park,IL,308616,Alto Potencial,99.3,6.9,2.9,1.0,-0.2,41.9995,-88.1451
63114,Overland,MO,137821,Alto Potencial,99.3,9.1,2.4,2.3,-4.0,38.7023,-90.3644
53402,Caledonia,WI,278182,Alto Potencial,99.3,7.3,3.3,3.2,-1.5,42.7726,-87.796
19604,Reading,PA,155739,Alto Potencial,99.3,12.9,2.4,2.2,-3.3,40.3507,-75.9143
60018,Des Plaines,IL,356433,Alto Potencial,99.3,7.5,3.6,1.8,1.6,42.0155,-87.8687
44708,Canton,OH,181855,Alto Potencial,99.3,8.0,2.6,4.4,-1.0,40.812,-81.4241
6118,East Hartford,CT,298525,Alto Potencial,99.3,7.7,3.2,2.4,-0.4,,
67501,Hutchinson,KS,90999,Alto Potencial,99.3,8.5,1.6,6.9,-4.2,38.055,-97.9311
44483,Warren,OH,126425,Alto Potencial,99.3,10.4,2.2,3.8,-4.2,41.2639,-80.8164
6042,Manchester,CT,301607,Alto Potencial,99.3,7.8,2.8,2.4,0.6,,
60008,Rolling Meadows,IL,315488,Alto Potencial,99.3,8.7,2.8,2.5,0.9,42.073,-88.0191
43607,Toledo,OH,73692,Alto Potencial,99.3,8.2,1.6,8.9,3.0,41.6504,-83.5974
6107,West Hartford,CT,549073,Alto Potencial,99.3,7.4,2.7,1.2,-0.1,,
7405,Kinnelon,NJ,648721,Alto Potencial,99.3,7.5,4.3,1.1,1.8,,
13203,Syracuse,NY,172594,Alto Potencial,99.3,10.9,3.0,6.4,2.7,43.0607,-76.1369
69361,Scottsbluff,NE,174846,Alto Potencial,99.3,7.2,2.8,2.9,-1.8,41.872,-103.6619
16504,Erie,PA,142268,Alto Potencial,99.3,10.8,2.3,3.7,-2.9,42.1108,-80.0521
49829,Escanaba,MI,157764,Alto Potencial,99.3,9.0,2.8,6.5,0.8,45.7659,-87.089
7059,Warren Township,NJ,1071731,Alto Potencial,99.3,9.2,4.5,1.8,0.6,,
8805,Bound Brook,NJ,523345,Alto Potencial,99.3,9.8,5.2,0.5,0.0,,
1507,Charlton,MA,513421,Alto Potencial,99.3,7.6,3.6,2.0,-1.0,,
11598,Woodmere,NY,1238549,Alto Potencial,99.3,8.7,5.9,1.9,-0.8,40.6326,-73.7141
45404,Dayton,OH,96540,Alto Potencial,99.3,11.8,2.3,5.3,-2.8,39.7862,-84.1622
46802,Fort Wayne,IN,133014,Alto Potencial,99.3,7.7,2.7,8.8,-0.9,41.0707,-85.1543
12209,Albany,NY,246577,Alto Potencial,99.3,7.8,2.6,2.6,-2.2,42.6417,-73.7854
6260,Putnam,CT,322419,Alto Potencial,99.3,9.1,4.0,1.8,0.9,,
25901,Oak Hill,WV,154458,Alto Potencial,99.3,8.5,2.4,6.0,0.3,37.9723,-81.1487
13403,Marcy,NY,275190,Alto Potencial,99.3,7.9,2.4,1.8,-1.5,43.1639,-75.2783
8810,Dayton,NJ,625871,Alto Potencial,99.3,8.3,3.7,0.8,-0.6,,
53040,Kewaskum,WI,363245,Alto Potencial,99.3,8.2,3.3,2.0,-1.0,43.5214,-88.1925
8850,Milltown,NJ,581574,Alto Potencial,99.3,10.9,3.8,0.8,2.8,,
7041,Millburn,NJ,1136661,Alto Potencial,99.3,8.4,4.2,3.5,1.1,,
7649,Oradell,NJ,911468,Alto Potencial,99.3,8.6,3.7,0.8,1.7,,
11507,Albertson,NY,1018224,Alto Potencial,99.3,7.8,5.4,2.1,1.6,40.7703,-73.6514
59417,Browning,MT,161170,Alto Potencial,99.3,21.7,3.5,4.6,-5.7,48.5569,-113.0134
29477,Saint George,SC,210644,Alto Potencial,99.3,7.9,3.1,8.0,3.4,33.1845,-80.5732
24065,Boones Mill,VA,314133,Alto Potencial,99.3,8.5,4.2,2.7,-0.8,37.1331,-79.9556
44076,Orwell,OH,214827,Alto Potencial,99.3,9.0,3.5,4.8,-1.4,41.5293,-80.8208
61011,Caledonia,IL,342081,Alto Potencial,99.3,9.3,2.2,1.2,-1.6,42.3835,-88.9185
47390,Union City,IN,123109,Alto Potencial,99.3,12.3,2.4,5.7,-4.3,40.2024,-84.8268
42038,Eddyville,KY,160674,Alto Potencial,99.3,10.6,2.2,15.5,-0.3,37.0664,-88.0494
61063,Pecatonica,IL,206900,Alto Potencial,99.3,7.9,2.0,2.5,0.7,42.3051,-89.3472
7064,Port Reading,NJ,516815,Alto Potencial,99.3,10.2,2.9,1.3,1.1,,
17954,Minersville,PA,100294,Alto Potencial,99.3,12.4,1.2,9.9,11.2,40.6904,-76.2597
14532,Phelps,NY,229966,Alto Potencial,99.3,7.1,2.7,4.9,-0.6,42.9582,-77.0473
54630,Galesville,WI,283857,Alto Potencial,99.3,9.3,2.8,1.4,-1.3,44.0888,-91.3588
54170,Bovina,WI,315642,Alto Potencial,99.3,8.3,3.6,2.5,-2.1,44.4972,-88.5562
47117,Elizabeth,IN,249130,Alto Potencial,99.3,7.7,2.4,3.2,0.6,38.1244,-85.9589
8097,Woodbury Heights,NJ,340608,Alto Potencial,99.3,7.8,2.4,1.1,-2.2,,
37061,Erin,TN,215474,Alto Potencial,99.3,11.1,3.3,7.8,-1.9,36.3067,-87.679
44438,Masury,OH,88160,Alto Potencial,99.3,15.4,1.8,4.2,-2.1,41.2255,-80.5326
65550,,MO,174322,Alto Potencial,99.3,12.6,2.2,15.3,0.4,37.9008,-91.8807
53076,Richfield,WI,550500,Alto Potencial,99.3,7.6,4.2,3.6,-0.1,43.2739,-88.2155
44473,Vienna Center,OH,199387,Alto Potencial,99.3,8.1,2.3,6.2,-2.5,41.2175,-80.655
49344,Shelbyville,MI,326785,Alto Potencial,99.3,8.7,3.7,8.5,-1.7,42.5936,-85.6282
41006,Butler,KY,261089,Alto Potencial,99.3,8.7,3.4,6.2,-3.5,38.8013,-84.3446
13317,Canajoharie,NY,182909,Alto Potencial,99.3,8.3,2.4,7.5,-3.8,42.8671,-74.5956
7857,Netcong,NJ,472889,Alto Potencial,99.3,9.1,4.3,4.3,2.1,,
12068,Fonda,NY,216438,Alto Potencial,99.3,8.7,2.6,5.1,-3.0,42.9571,-74.4021
74130,Turley,OK,92256,Alto Potencial,99.3,14.0,1.7,7.1,-1.0,36.2395,-95.9596
4258,Minot,ME,376490,Alto Potencial,99.3,8.5,3.4,0.8,1.4,,
2804,Hopkinton,RI,427989,Alto Potencial,99.3,8.0,3.6,6.3,-1.5,,
47342,Gaston,IN,191240,Alto Potencial,99.3,9.1,2.5,3.9,-3.1,40.2948,-85.4898
25442,Shenandoah Junction,WV,477149,Alto Potencial,99.3,9.0,3.4,2.0,-1.6,39.3716,-77.8229
62245,Germantown,IL,227103,Alto Potencial,99.3,7.0,2.2,2.1,1.4,38.5487,-89.5413
40385,Richmond,KY,237602,Alto Potencial,99.3,10.6,3.6,14.1,-1.6,37.7426,-84.1441
44822,Butler,OH,237600,Alto Potencial,99.3,8.5,3.0,4.9,-1.6,40.5438,-82.399
53923,Cambria,WI,256184,Alto Potencial,99.3,8.6,2.9,1.6,-1.0,43.5724,-89.1156
63347,Elsberry,MO,230950,Alto Potencial,99.3,8.1,2.7,9.4,3.8,39.053,-90.7775
44411,Deerfield,OH,217284,Alto Potencial,99.3,7.8,2.5,11.1,-0.7,41.0359,-81.0528
