RegionName,City,State,Precio_Actual,Clasificacion,Confianza_%,Datos_Clave,Latitude,Longitude
79703,Midland,TX,232597,Alto Potencial,90.2,Crecimiento24: 6.0% | Crecimiento25: 8.1% | Vacancia: 1.2% | Momentum: 8.1%,31.9721,-102.1369
79761,Odessa,TX,195921,Alto Potencial,89.3,Crecimiento24: 2.7% | Crecimiento25: 9.7% | Vacancia: 3.8% | Momentum: 9.8%,31.8579,-102.3523
79701,Midland,TX,208229,Alto Potencial,88.9,Crecimiento24: 3.0% | Crecimiento25: 10.0% | Vacancia: 3.5% | Momentum: 8.2%,31.9896,-102.0626
79762,Odessa,TX,246744,Alto Potencial,87.0,Crecimiento24: 5.2% | Crecimiento25: 6.7% | Vacancia: 3.8% | Momentum: 6.6%,31.889,-102.3548
78852,Eagle Pass,TX,221536,Alto Potencial,86.2,Crecimiento24: 8.1% | Crecimiento25: 8.3% | Vacancia: 3.2% | Momentum: 1.8%,28.7028,-100.4818
79764,Odessa,TX,214940,Alto Potencial,85.5,Crecimiento24: 1.9% | Crecimiento25: 7.4% | Vacancia: 2.6% | Momentum: 8.3%,31.8767,-102.4375
79758,Gardendale,TX,365993,Alto Potencial,83.8,Crecimiento24: 2.2% | Crecimiento25: 8.5% | Vacancia: 2.4% | Momentum: 5.4%,32.0245,-102.3572
79705,Midland,TX,343272,Alto Potencial,81.8,Crecimiento24: 3.9% | Crecimiento25: 4.5% | Vacancia: 3.3% | Momentum: 2.8%,32.0295,-102.0915
79763,Odessa,TX,195053,Alto Potencial,79.9,Crecimiento24: 1.0% | Crecimiento25: 10.1% | Vacancia: 4.1% | Momentum: 9.7%,31.8341,-102.4162
79766,Odessa,TX,283848,Alto Potencial,77.7,Crecimiento24: 0.2% | Crecimiento25: 8.9% | Vacancia: 1.3% | Momentum: 7.0%,31.7827,-102.3449
79707,Midland,TX,406361,Alto Potencial,75.5,Crecimiento24: 4.0% | Crecimiento25: 4.0% | Vacancia: 1.3% | Momentum: 1.9%,32.0199,-102.1476
79706,Midland,TX,374962,Alto Potencial,75.1,Crecimiento24: 5.0% | Crecimiento25: 4.5% | Vacancia: 2.9% | Momentum: 5.4%,31.8816,-102.0134
77701,Beaumont,TX,94874,Alto Potencial,61.6,Crecimiento24: -2.6% | Crecimiento25: 9.4% | Vacancia: 10.3% | Momentum: 6.3%,30.0688,-94.1039
78579,Progreso,TX,123746,Alto Potencial,58.5,Crecimiento24: 21.1% | Crecimiento25: 3.8% | Vacancia: 5.1% | Momentum: 1.9%,26.0922,-97.9533
79520,Hamlin,TX,110370,Alto Potencial,57.5,Crecimiento24: 2.6% | Crecimiento25: 7.9% | Vacancia: 8.7% | Momentum: -0.0%,32.8799,-100.128
77703,Beaumont,TX,87053,Alto Potencial,47.0,Crecimiento24: -2.5% | Crecimiento25: 9.6% | Vacancia: 8.2% | Momentum: 1.1%,30.1132,-94.1197
78574,La Homa,TX,189169,Estable,100.0,Crecimiento24: 10.2% | Crecimiento25: 3.2% | Vacancia: 2.2% | Momentum: -5.8%,26.3189,-98.3701
79915,El Paso,TX,163568,Estable,100.0,Crecimiento24: 6.0% | Crecimiento25: 5.0% | Vacancia: 3.5% | Momentum: -6.7%,31.7432,-106.3686
79904,El Paso,TX,183291,Estable,100.0,Crecimiento24: 6.4% | Crecimiento25: 4.2% | Vacancia: 3.8% | Momentum: -8.4%,31.8533,-106.4381
75238,Dallas,TX,615663,Estable,100.0,Crecimiento24: 6.9% | Crecimiento25: 5.0% | Vacancia: 3.2% | Momentum: -7.3%,32.877,-96.708
79922,El Paso,TX,391736,Estable,100.0,Crecimiento24: 7.4% | Crecimiento25: 7.1% | Vacancia: 7.3% | Momentum: -6.5%,31.8218,-106.5732
79930,El Paso,TX,177423,Estable,99.9,Crecimiento24: 7.5% | Crecimiento25: 4.0% | Vacancia: 7.3% | Momentum: -6.5%,31.8048,-106.4568
79902,El Paso,TX,269680,Estable,99.9,Crecimiento24: 8.7% | Crecimiento25: 3.4% | Vacancia: 5.9% | Momentum: -5.6%,31.7763,-106.4932
75218,Dallas,TX,546375,Estable,99.9,Crecimiento24: 5.7% | Crecimiento25: 2.9% | Vacancia: 3.0% | Momentum: -8.7%,32.8463,-96.6972
79935,El Paso,TX,235106,Estable,99.9,Crecimiento24: 5.9% | Crecimiento25: 3.6% | Vacancia: 2.5% | Momentum: -8.2%,31.7718,-106.3303
75244,Dallas,TX,693609,Estable,99.9,Crecimiento24: 5.9% | Crecimiento25: 4.8% | Vacancia: 5.2% | Momentum: -8.9%,32.9322,-96.8353
79936,El Paso,TX,214157,Estable,99.8,Crecimiento24: 6.5% | Crecimiento25: 3.6% | Vacancia: 1.1% | Momentum: -9.1%,31.7677,-106.3016
75214,Dallas,TX,797739,Estable,99.8,Crecimiento24: 4.3% | Crecimiento25: 5.4% | Vacancia: 5.2% | Momentum: -9.1%,32.8248,-96.7498
75205,Highland Park,TX,1955780,Estable,99.8,Crecimiento24: 7.2% | Crecimiento25: 6.8% | Vacancia: 4.6% | Momentum: -12.0%,32.826,-96.7843
79104,Amarillo,TX,106910,Estable,99.8,Crecimiento24: 5.0% | Crecimiento25: 2.9% | Vacancia: 5.3% | Momentum: -8.7%,35.1939,-101.7975
76055,Itasca,TX,214676,Estable,99.8,Crecimiento24: 2.5% | Crecimiento25: 4.8% | Vacancia: 4.4% | Momentum: -8.6%,32.1636,-97.146
78541,Edinburg,TX,205764,Estable,99.7,Crecimiento24: 4.9% | Crecimiento25: 2.7% | Vacancia: 3.8% | Momentum: -8.9%,26.4481,-98.2842
75604,Longview,TX,215956,Estable,99.7,Crecimiento24: 4.4% | Crecimiento25: 2.6% | Vacancia: 4.1% | Momentum: -6.6%,32.5251,-94.799
79903,El Paso,TX,173536,Estable,99.7,Crecimiento24: 9.2% | Crecimiento25: 6.6% | Vacancia: 5.8% | Momentum: -2.9%,31.7862,-106.4406
78576,Penitas,TX,155027,Estable,99.7,Crecimiento24: 10.9% | Crecimiento25: 4.1% | Vacancia: 1.8% | Momentum: -4.5%,26.278,-98.4469
76645,Hillsboro,TX,213402,Estable,99.7,Crecimiento24: 3.6% | Crecimiento25: 6.7% | Vacancia: 5.1% | Momentum: -7.5%,32.0149,-97.1198
78557,Hidalgo,TX,188812,Estable,99.7,Crecimiento24: 5.3% | Crecimiento25: 3.3% | Vacancia: 1.8% | Momentum: -9.0%,26.1028,-98.2536
79911,El Paso,TX,384783,Estable,99.7,Crecimiento24: 3.2% | Crecimiento25: 3.0% | Vacancia: 1.5% | Momentum: -12.0%,31.8925,-106.5426
78504,McAllen,TX,260150,Estable,99.6,Crecimiento24: 3.9% | Crecimiento25: 1.5% | Vacancia: 3.0% | Momentum: -11.3%,26.2556,-98.2303
78539,Edinburg,TX,240292,Estable,99.6,Crecimiento24: 3.6% | Crecimiento25: 2.0% | Vacancia: 3.9% | Momentum: -11.1%,26.2792,-98.1832
77803,Bryan,TX,203421,Estable,99.6,Crecimiento24: 4.6% | Crecimiento25: 2.0% | Vacancia: 2.5% | Momentum: -5.9%,30.6913,-96.3714
75229,Dallas,TX,699307,Estable,99.6,Crecimiento24: 4.6% | Crecimiento25: 6.1% | Vacancia: 2.5% | Momentum: -9.1%,32.8958,-96.8588
76109,Fort Worth,TX,648470,Estable,99.6,Crecimiento24: 5.0% | Crecimiento25: 6.1% | Vacancia: 5.8% | Momentum: -7.2%,32.7002,-97.3789
79015,Canyon,TX,289005,Estable,99.6,Crecimiento24: 2.9% | Crecimiento25: 3.1% | Vacancia: 3.9% | Momentum: -8.0%,34.9772,-101.9247
75001,Addison,TX,495055,Estable,99.6,Crecimiento24: 3.5% | Crecimiento25: 2.4% | Vacancia: 4.3% | Momentum: -9.8%,32.96,-96.8385
75693,White Oak,TX,239287,Estable,99.6,Crecimiento24: 3.0% | Crecimiento25: 4.2% | Vacancia: 6.0% | Momentum: -5.9%,32.5383,-94.8622
79928,Horizon City,TX,254105,Estable,99.6,Crecimiento24: 3.5% | Crecimiento25: 2.3% | Vacancia: 1.4% | Momentum: -12.5%,31.6631,-106.1401
79912,El Paso,TX,308237,Estable,99.5,Crecimiento24: 5.4% | Crecimiento25: 3.3% | Vacancia: 4.3% | Momentum: -9.3%,31.8383,-106.5364
79925,El Paso,TX,228158,Estable,99.5,Crecimiento24: 7.2% | Crecimiento25: 3.7% | Vacancia: 2.8% | Momentum: -6.1%,31.7814,-106.3613
77381,Spring,TX,537125,Estable,99.5,Crecimiento24: 5.6% | Crecimiento25: 5.0% | Vacancia: 1.5% | Momentum: -9.7%,30.1716,-95.4985
77096,Houston,TX,430838,Estable,99.5,Crecimiento24: 3.5% | Crecimiento25: 2.2% | Vacancia: 5.8% | Momentum: -4.9%,29.6722,-95.4861
77018,Houston,TX,528695,Estable,99.5,Crecimiento24: 3.6% | Crecimiento25: 3.0% | Vacancia: 4.1% | Momentum: -3.8%,29.8272,-95.4266
76034,Colleyville,TX,889193,Estable,99.5,Crecimiento24: 4.5% | Crecimiento25: 4.5% | Vacancia: 1.2% | Momentum: -12.5%,32.8872,-97.146
77808,Bryan,TX,419296,Estable,99.5,Crecimiento24: 5.8% | Crecimiento25: 2.9% | Vacancia: 3.5% | Momentum: -4.2%,30.8202,-96.3059
79849,San Elizario,TX,166480,Estable,99.5,Crecimiento24: 7.8% | Crecimiento25: 3.4% | Vacancia: 3.0% | Momentum: -7.0%,31.5508,-106.2507
75647,Gladewater,TX,206071,Estable,99.5,Crecimiento24: 2.9% | Crecimiento25: 3.6% | Vacancia: 4.7% | Momentum: -7.0%,32.5559,-94.932
75785,,TX,227849,Estable,99.5,Crecimiento24: 4.8% | Crecimiento25: 5.8% | Vacancia: 5.8% | Momentum: -6.5%,31.8136,-95.0965
76354,Burkburnett,TX,181105,Estable,99.5,Crecimiento24: 3.6% | Crecimiento25: 4.9% | Vacancia: 4.2% | Momentum: -8.5%,34.086,-98.5708
76557,Moody,TX,317021,Estable,99.5,Crecimiento24: 3.0% | Crecimiento25: 3.5% | Vacancia: 4.1% | Momentum: -13.9%,31.2533,-97.41
76051,Grapevine,TX,542467,Estable,99.4,Crecimiento24: 4.8% | Crecimiento25: 3.1% | Vacancia: 2.3% | Momentum: -10.5%,32.9328,-97.0808
78516,Alamo,TX,162103,Estable,99.4,Crecimiento24: 8.5% | Crecimiento25: 3.5% | Vacancia: 6.4% | Momentum: -7.8%,26.1906,-98.1164
78570,Mercedes,TX,135730,Estable,99.4,Crecimiento24: 13.1% | Crecimiento25: 4.1% | Vacancia: 5.1% | Momentum: -3.9%,26.1513,-97.9185
79821,Vinton,TX,208997,Estable,99.4,Crecimiento24: 7.0% | Crecimiento25: 3.2% | Vacancia: 2.4% | Momentum: -9.6%,31.9907,-106.5976
77479,Sugar Land,TX,540630,Estable,99.4,Crecimiento24: 4.3% | Crecimiento25: 3.5% | Vacancia: 1.2% | Momentum: -10.2%,29.5785,-95.6066
79924,El Paso,TX,187602,Estable,99.3,Crecimiento24: 7.6% | Crecimiento25: 4.1% | Vacancia: 2.3% | Momentum: -8.1%,31.9021,-106.4149
78542,Edinburg,TX,197635,Estable,99.3,Crecimiento24: 6.8% | Crecimiento25: 2.7% | Vacancia: 2.6% | Momentum: -9.0%,26.4661,-98.0695
77031,Houston,TX,260338,Estable,99.2,Crecimiento24: 4.0% | Crecimiento25: 1.5% | Vacancia: 5.3% | Momentum: -9.3%,29.6581,-95.5413
75209,Dallas,TX,1016747,Estable,99.2,Crecimiento24: 4.4% | Crecimiento25: 5.8% | Vacancia: 4.7% | Momentum: -10.4%,32.8456,-96.826
76367,,TX,184240,Estable,99.2,Crecimiento24: 2.1% | Crecimiento25: 4.6% | Vacancia: 2.7% | Momentum: -9.9%,33.9423,-98.6745
78526,Brownsville,TX,225110,Estable,99.1,Crecimiento24: 4.9% | Crecimiento25: 3.7% | Vacancia: 1.9% | Momentum: -12.3%,25.9717,-97.4699
77055,Houston,TX,602268,Estable,99.1,Crecimiento24: 4.1% | Crecimiento25: 3.6% | Vacancia: 3.7% | Momentum: -2.6%,29.7971,-95.4958
75248,Dallas,TX,619544,Estable,99.1,Crecimiento24: 5.5% | Crecimiento25: 4.3% | Vacancia: 4.3% | Momentum: -8.3%,32.9682,-96.7942
75839,Elkhart,TX,245141,Estable,99.1,Crecimiento24: 10.2% | Crecimiento25: 4.8% | Vacancia: 6.0% | Momentum: -7.0%,31.648,-95.5551
79934,El Paso,TX,240616,Estable,99.0,Crecimiento24: 4.7% | Crecimiento25: 2.2% | Vacancia: 3.8% | Momentum: -12.2%,31.9386,-106.4073
75022,Flower Mound,TX,771220,Estable,99.0,Crecimiento24: 3.3% | Crecimiento25: 3.1% | Vacancia: 1.1% | Momentum: -14.5%,33.0268,-97.1193
79836,Clint,TX,189683,Estable,99.0,Crecimiento24: 5.1% | Crecimiento25: 2.7% | Vacancia: 2.7% | Momentum: -8.1%,31.5494,-106.2038
76487,,TX,447950,Estable,99.0,Crecimiento24: 3.1% | Crecimiento25: 4.5% | Vacancia: 6.4% | Momentum: -8.9%,32.968,-97.8472
77861,Iola,TX,498483,Estable,99.0,Crecimiento24: 4.6% | Crecimiento25: 5.9% | Vacancia: 5.5% | Momentum: -6.5%,30.7326,-96.0911
75093,Plano,TX,753831,Estable,98.9,Crecimiento24: 5.7% | Crecimiento25: 2.2% | Vacancia: 2.6% | Momentum: -12.9%,33.0299,-96.7889
78573,Alton,TX,207128,Estable,98.9,Crecimiento24: 7.3% | Crecimiento25: 1.6% | Vacancia: 3.0% | Momentum: -7.4%,26.2937,-98.3008
75220,Dallas,TX,487639,Estable,98.9,Crecimiento24: 4.4% | Crecimiento25: 3.3% | Vacancia: 4.5% | Momentum: -11.6%,32.8681,-96.8622
77079,Houston,TX,678758,Estable,98.9,Crecimiento24: 7.0% | Crecimiento25: 5.1% | Vacancia: 4.3% | Momentum: -3.9%,29.7738,-95.598
75766,Jacksonville,TX,221454,Estable,98.9,Crecimiento24: 5.1% | Crecimiento25: 2.2% | Vacancia: 5.1% | Momentum: -10.1%,31.9618,-95.2703
75803,Palestine,TX,225240,Estable,98.9,Crecimiento24: 4.9% | Crecimiento25: 2.7% | Vacancia: 5.4% | Momentum: -10.0%,31.7571,-95.6545
75080,Richardson,TX,447254,Estable,98.8,Crecimiento24: 4.0% | Crecimiento25: 2.3% | Vacancia: 2.4% | Momentum: -9.5%,32.966,-96.7452
79108,Amarillo,TX,192574,Estable,98.8,Crecimiento24: 2.8% | Crecimiento25: 3.7% | Vacancia: 6.6% | Momentum: -8.2%,35.2779,-101.83
77461,Needville,TX,351533,Estable,98.8,Crecimiento24: 2.6% | Crecimiento25: 4.2% | Vacancia: 2.2% | Momentum: -7.0%,29.4117,-95.8273
77840,College Station,TX,276706,Estable,98.7,Crecimiento24: 5.8% | Crecimiento25: 2.0% | Vacancia: 6.6% | Momentum: -5.9%,30.6045,-96.3123
75019,Coppell,TX,625542,Estable,98.7,Crecimiento24: 3.6% | Crecimiento25: 4.3% | Vacancia: 1.0% | Momentum: -12.0%,32.9673,-96.9805
77043,Houston,TX,396607,Estable,98.7,Crecimiento24: 3.4% | Crecimiento25: 1.8% | Vacancia: 3.6% | Momentum: -7.2%,29.8052,-95.5607
78566,Los Fresnos,TX,215663,Estable,98.7,Crecimiento24: 4.2% | Crecimiento25: 4.0% | Vacancia: 4.3% | Momentum: -8.5%,26.1158,-97.4107
75965,Nacogdoches,TX,266213,Estable,98.7,Crecimiento24: 3.2% | Crecimiento25: 2.2% | Vacancia: 4.6% | Momentum: -9.4%,31.7195,-94.6168
78552,Harlingen,TX,220715,Estable,98.6,Crecimiento24: 4.1% | Crecimiento25: 2.1% | Vacancia: 5.8% | Momentum: -11.0%,26.1831,-97.7468
77401,Bellaire,TX,1090748,Estable,98.6,Crecimiento24: 5.9% | Crecimiento25: 5.8% | Vacancia: 3.0% | Momentum: -1.5%,29.7023,-95.4611
79536,Merkel,TX,178686,Estable,98.6,Crecimiento24: 1.1% | Crecimiento25: 5.1% | Vacancia: 5.5% | Momentum: -8.8%,32.4444,-99.9924
75423,Celeste,TX,368113,Estable,98.6,Crecimiento24: 2.9% | Crecimiento25: 3.3% | Vacancia: 4.6% | Momentum: -11.4%,33.2649,-96.2076
76270,Alvord,TX,495627,Estable,98.6,Crecimiento24: 7.3% | Crecimiento25: 5.9% | Vacancia: 7.4% | Momentum: -6.6%,33.4539,-97.7709
79107,Amarillo,TX,104077,Estable,98.5,Crecimiento24: 4.2% | Crecimiento25: 3.9% | Vacancia: 6.0% | Momentum: -9.7%,35.2309,-101.806
78599,Weslaco,TX,183189,Estable,98.5,Crecimiento24: 12.1% | Crecimiento25: 2.3% | Vacancia: 2.0% | Momentum: -6.8%,26.1595,-97.9908
76401,Stephenville,TX,316513,Estable,98.5,Crecimiento24: 2.9% | Crecimiento25: 4.2% | Vacancia: 4.9% | Momentum: -13.7%,32.2214,-98.2224
79106,Amarillo,TX,160237,Estable,98.5,Crecimiento24: 3.0% | Crecimiento25: 1.5% | Vacancia: 6.3% | Momentum: -10.1%,35.1977,-101.8949
77025,Houston,TX,477646,Estable,98.5,Crecimiento24: 2.5% | Crecimiento25: 0.9% | Vacancia: 4.9% | Momentum: -3.0%,29.6889,-95.4341
77382,Spring,TX,573880,Estable,98.4,Crecimiento24: 5.3% | Crecimiento25: 4.6% | Vacancia: 1.0% | Momentum: -10.3%,30.2106,-95.5257
76092,Southlake,TX,1237817,Estable,98.4,Crecimiento24: 3.8% | Crecimiento25: 5.6% | Vacancia: 1.4% | Momentum: -15.6%,32.9485,-97.1524
77904,Victoria,TX,274274,Estable,98.4,Crecimiento24: 2.0% | Crecimiento25: 2.2% | Vacancia: 3.6% | Momentum: -8.2%,28.8675,-96.999
79835,,TX,207031,Estable,98.4,Crecimiento24: 7.3% | Crecimiento25: 1.6% | Vacancia: 3.8% | Momentum: -9.5%,31.9344,-106.5929
75061,Irving,TX,305747,Estable,98.3,Crecimiento24: 3.1% | Crecimiento25: 1.2% | Vacancia: 2.4% | Momentum: -11.2%,32.8267,-96.9633
79907,El Paso,TX,169290,Estable,98.3,Crecimiento24: 7.1% | Crecimiento25: 4.5% | Vacancia: 2.6% | Momentum: -7.0%,31.7089,-106.3293
79927,Socorro,TX,194563,Estable,98.3,Crecimiento24: 6.2% | Crecimiento25: 3.3% | Vacancia: 1.7% | Momentum: -9.8%,31.6446,-106.2737
75701,Tyler,TX,224079,Estable,98.3,Crecimiento24: 5.8% | Crecimiento25: 1.2% | Vacancia: 6.5% | Momentum: -10.8%,32.3254,-95.2922
79932,El Paso,TX,313404,Estable,98.3,Crecimiento24: 4.5% | Crecimiento25: 2.7% | Vacancia: 2.5% | Momentum: -11.3%,31.8623,-106.5932
79110,Amarillo,TX,165127,Estable,98.3,Crecimiento24: 4.0% | Crecimiento25: 1.9% | Vacancia: 4.5% | Momentum: -9.2%,35.1545,-101.8641
76306,Wichita Falls,TX,138687,Estable,98.3,Crecimiento24: 2.7% | Crecimiento25: 4.0% | Vacancia: 7.2% | Momentum: -12.4%,33.9519,-98.5145
76462,Lipan,TX,490655,Estable,98.3,Crecimiento24: 5.7% | Crecimiento25: 4.7% | Vacancia: 2.8% | Momentum: -9.0%,32.5072,-97.9536
76225,Alvord,TX,362802,Estable,98.3,Crecimiento24: 2.8% | Crecimiento25: 3.7% | Vacancia: 3.1% | Momentum: -9.2%,33.3698,-97.6885
77845,College Station,TX,362338,Estable,98.2,Crecimiento24: 3.7% | Crecimiento25: 1.5% | Vacancia: 3.5% | Momentum: -6.3%,30.5118,-96.3171
77380,Spring,TX,379260,Estable,98.2,Crecimiento24: 3.9% | Crecimiento25: 1.7% | Vacancia: 4.0% | Momentum: -12.4%,30.1441,-95.4703
77802,Bryan,TX,277656,Estable,98.2,Crecimiento24: 5.3% | Crecimiento25: 2.1% | Vacancia: 3.7% | Momentum: -4.5%,30.6582,-96.3351
75707,Tyler,TX,307363,Estable,98.2,Crecimiento24: 4.2% | Crecimiento25: 0.9% | Vacancia: 6.0% | Momentum: -10.9%,32.3038,-95.1927
76305,,TX,240146,Estable,98.2,Crecimiento24: 3.0% | Crecimiento25: 3.8% | Vacancia: 6.5% | Momentum: -6.4%,33.9995,-98.3938
75038,Irving,TX,448832,Estable,98.1,Crecimiento24: 2.7% | Crecimiento25: 1.6% | Vacancia: 3.7% | Momentum: -12.7%,32.8653,-96.9905
79603,Abilene,TX,132546,Estable,98.1,Crecimiento24: 5.9% | Crecimiento25: 1.0% | Vacancia: 4.7% | Momentum: -6.5%,32.4679,-99.7619
77094,Houston,TX,564573,Estable,98.1,Crecimiento24: 3.7% | Crecimiento25: 5.0% | Vacancia: 1.5% | Momentum: -6.7%,29.7705,-95.7107
76272,,TX,471501,Estable,98.1,Crecimiento24: 1.8% | Crecimiento25: 6.9% | Vacancia: 5.2% | Momentum: -8.1%,33.5022,-97.2311
75225,University Park,TX,1895046,Estable,98.0,Crecimiento24: 8.1% | Crecimiento25: 8.4% | Vacancia: 3.5% | Momentum: -9.3%,32.8628,-96.7918
75662,Kilgore,TX,209372,Estable,97.9,Crecimiento24: 2.4% | Crecimiento25: 4.1% | Vacancia: 5.1% | Momentum: -6.5%,32.3836,-94.8653
79905,El Paso,TX,150505,Estable,97.9,Crecimiento24: 7.7% | Crecimiento25: 9.3% | Vacancia: 5.6% | Momentum: -2.5%,31.7674,-106.4304
76308,Wichita Falls,TX,214517,Estable,97.9,Crecimiento24: 2.2% | Crecimiento25: 3.8% | Vacancia: 4.7% | Momentum: -9.6%,33.8633,-98.534
75252,Dallas,TX,621524,Estable,97.8,Crecimiento24: 5.0% | Crecimiento25: 1.2% | Vacancia: 4.8% | Momentum: -12.1%,32.9968,-96.7921
75601,Longview,TX,203949,Estable,97.8,Crecimiento24: 2.6% | Crecimiento25: 3.2% | Vacancia: 4.9% | Momentum: -7.9%,32.5178,-94.7303
76302,Wichita Falls,TX,181896,Estable,97.8,Crecimiento24: 4.2% | Crecimiento25: 2.9% | Vacancia: 2.4% | Momentum: -9.9%,33.8643,-98.494
75035,Frisco,TX,678705,Estable,97.7,Crecimiento24: 3.3% | Crecimiento25: 1.7% | Vacancia: 1.3% | Momentum: -19.3%,33.1377,-96.7524
75063,Irving,TX,618090,Estable,97.7,Crecimiento24: 3.9% | Crecimiento25: 2.6% | Vacancia: 2.4% | Momentum: -13.2%,32.9247,-96.9598
78009,Castroville,TX,456497,Estable,97.7,Crecimiento24: 0.4% | Crecimiento25: 4.3% | Vacancia: 3.9% | Momentum: -7.9%,29.3553,-98.8824
77801,Bryan,TX,216563,Estable,97.6,Crecimiento24: 4.4% | Crecimiento25: 2.2% | Vacancia: 7.7% | Momentum: -6.5%,30.6327,-96.3662
76904,San Angelo,TX,320073,Estable,97.5,Crecimiento24: 2.8% | Crecimiento25: 2.8% | Vacancia: 4.0% | Momentum: -7.3%,31.4194,-100.48
77535,Dayton,TX,311479,Estable,97.5,Crecimiento24: 2.9% | Crecimiento25: 2.0% | Vacancia: 3.2% | Momentum: -6.8%,30.0102,-94.8787
77441,Fulshear,TX,544808,Estable,97.5,Crecimiento24: 2.4% | Crecimiento25: 2.5% | Vacancia: 1.5% | Momentum: -13.5%,29.7217,-95.8977
78575,Rancho Viejo,TX,276391,Estable,97.5,Crecimiento24: 2.4% | Crecimiento25: 3.3% | Vacancia: 4.4% | Momentum: -12.3%,26.0353,-97.5496
77872,North Zulch,TX,343732,Estable,97.5,Crecimiento24: 4.6% | Crecimiento25: 4.8% | Vacancia: 8.3% | Momentum: -12.3%,30.9285,-96.0925
75791,Whitehouse,TX,286901,Estable,97.4,Crecimiento24: 4.5% | Crecimiento25: 1.8% | Vacancia: 4.1% | Momentum: -10.8%,32.222,-95.2266
77363,,TX,326802,Estable,97.4,Crecimiento24: 0.8% | Crecimiento25: 3.7% | Vacancia: 5.6% | Momentum: -9.5%,30.2969,-95.8498
76648,Hubbard,TX,205062,Estable,97.4,Crecimiento24: 4.8% | Crecimiento25: 6.8% | Vacancia: 9.8% | Momentum: -5.0%,31.8436,-96.8
77494,Katy,TX,496242,Estable,97.3,Crecimiento24: 3.2% | Crecimiento25: 2.6% | Vacancia: 1.4% | Momentum: -14.0%,29.7404,-95.8304
78520,Brownsville,TX,183246,Estable,97.3,Crecimiento24: 7.2% | Crecimiento25: 1.4% | Vacancia: 4.0% | Momentum: -10.6%,25.9337,-97.5174
77478,Sugar Land,TX,429495,Estable,97.3,Crecimiento24: 4.0% | Crecimiento25: 2.9% | Vacancia: 1.2% | Momentum: -8.6%,29.6196,-95.607
75058,Gunter,TX,679207,Estable,97.3,Crecimiento24: 4.1% | Crecimiento25: 4.7% | Vacancia: 3.7% | Momentum: -14.4%,33.4495,-96.7341
75762,Flint,TX,308351,Estable,97.1,Crecimiento24: 3.2% | Crecimiento25: 1.0% | Vacancia: 6.3% | Momentum: -11.7%,32.2079,-95.3948
76271,Tioga,TX,399237,Estable,97.1,Crecimiento24: 1.9% | Crecimiento25: 3.1% | Vacancia: 2.0% | Momentum: -14.1%,33.4675,-96.9097
79601,Abilene,TX,187130,Estable,96.9,Crecimiento24: 2.1% | Crecimiento25: 2.7% | Vacancia: 6.0% | Momentum: -7.9%,32.4682,-99.7182
79103,Amarillo,TX,148030,Estable,96.9,Crecimiento24: 6.1% | Crecimiento25: 1.6% | Vacancia: 1.5% | Momentum: -8.6%,35.1751,-101.7976
78521,Brownsville,TX,166307,Estable,96.9,Crecimiento24: 7.3% | Crecimiento25: 4.9% | Vacancia: 2.4% | Momentum: -8.7%,25.9221,-97.4612
75650,Hallsville,TX,290658,Estable,96.8,Crecimiento24: 2.1% | Crecimiento25: 2.1% | Vacancia: 5.6% | Momentum: -6.9%,32.5073,-94.5333
76050,Grandview,TX,407592,Estable,96.8,Crecimiento24: 3.5% | Crecimiento25: 2.6% | Vacancia: 3.3% | Momentum: -12.1%,32.2704,-97.1792
79838,Fabens,TX,143464,Estable,96.7,Crecimiento24: 4.4% | Crecimiento25: 2.2% | Vacancia: 8.0% | Momentum: -6.0%,31.4745,-106.1589
75479,Savoy,TX,295012,Estable,96.7,Crecimiento24: 0.3% | Crecimiento25: 4.6% | Vacancia: 5.7% | Momentum: -10.5%,33.6066,-96.3502
75602,Longview,TX,129830,Estable,96.5,Crecimiento24: 1.2% | Crecimiento25: 4.5% | Vacancia: 6.3% | Momentum: -3.8%,32.4724,-94.7101
78559,La Feria,TX,172699,Estable,96.5,Crecimiento24: 3.0% | Crecimiento25: 1.8% | Vacancia: 7.7% | Momentum: -8.4%,26.1666,-97.8261
78572,Mission,TX,193424,Estable,96.4,Crecimiento24: 5.1% | Crecimiento25: 1.9% | Vacancia: 7.8% | Momentum: -10.5%,26.2159,-98.3253
78941,Flatonia,TX,444023,Estable,96.4,Crecimiento24: 1.5% | Crecimiento25: 5.6% | Vacancia: 13.6% | Momentum: -7.6%,29.7095,-97.0987
78560,La Joya,TX,156762,Estable,96.3,Crecimiento24: 7.1% | Crecimiento25: 3.1% | Vacancia: 7.3% | Momentum: -8.8%,26.2426,-98.4747
78947,Lexington,TX,404810,Estable,96.2,Crecimiento24: 1.1% | Crecimiento25: 3.8% | Vacancia: 5.5% | Momentum: -9.7%,30.4191,-97.0524
76239,Forestburg,TX,490222,Estable,96.1,Crecimiento24: 7.4% | Crecimiento25: 6.4% | Vacancia: 9.7% | Momentum: -6.8%,33.5398,-97.5848
75789,Troup,TX,282481,Estable,96.1,Crecimiento24: 2.2% | Crecimiento25: 2.1% | Vacancia: 3.9% | Momentum: -11.2%,32.1117,-95.1155
78593,Santa Rosa,TX,149207,Estable,96.1,Crecimiento24: 4.4% | Crecimiento25: 5.2% | Vacancia: 3.5% | Momentum: -4.4%,26.2555,-97.8257
77059,Houston,TX,467974,Estable,96.0,Crecimiento24: 2.3% | Crecimiento25: 2.2% | Vacancia: 0.9% | Momentum: -9.1%,29.5975,-95.1134
77426,Chappell Hill,TX,603350,Estable,96.0,Crecimiento24: 0.8% | Crecimiento25: 5.9% | Vacancia: 4.6% | Momentum: -11.4%,30.1833,-96.2347
75422,Campbell,TX,364941,Estable,95.8,Crecimiento24: 4.5% | Crecimiento25: 2.5% | Vacancia: 5.0% | Momentum: -11.9%,33.151,-95.9439
76905,San Angelo,TX,238942,Estable,95.7,Crecimiento24: 3.5% | Crecimiento25: 5.2% | Vacancia: 4.0% | Momentum: -6.0%,31.4647,-100.39
75287,Dallas,TX,483348,Estable,95.6,Crecimiento24: 3.1% | Crecimiento25: 0.7% | Vacancia: 4.8% | Momentum: -12.7%,33.0005,-96.8314
77035,Houston,TX,268788,Estable,95.5,Crecimiento24: 2.5% | Crecimiento25: 0.9% | Vacancia: 4.8% | Momentum: -7.1%,29.6518,-95.4854
76309,Wichita Falls,TX,130173,Estable,95.5,Crecimiento24: 4.9% | Crecimiento25: 1.8% | Vacancia: 7.2% | Momentum: -8.9%,33.8931,-98.5343
75028,Flower Mound,TX,547069,Estable,95.4,Crecimiento24: 2.4% | Crecimiento25: 1.7% | Vacancia: 0.8% | Momentum: -14.0%,33.0383,-97.0745
79045,Hereford,TX,172327,Estable,95.4,Crecimiento24: 1.4% | Crecimiento25: 5.6% | Vacancia: 5.9% | Momentum: -4.9%,34.837,-102.405
78596,Weslaco,TX,164283,Estable,95.3,Crecimiento24: 11.7% | Crecimiento25: 1.2% | Vacancia: 9.5% | Momentum: -6.3%,26.1694,-97.9887
78257,San Antonio,TX,875072,Estable,95.3,Crecimiento24: 4.1% | Crecimiento25: 1.4% | Vacancia: 10.1% | Momentum: -12.6%,29.6495,-98.6137
78537,Donna,TX,141667,Estable,95.2,Crecimiento24: 11.1% | Crecimiento25: 1.2% | Vacancia: 5.2% | Momentum: -8.2%,26.1671,-98.0529
75206,Dallas,TX,586385,Estable,95.2,Crecimiento24: 3.0% | Crecimiento25: 1.0% | Vacancia: 8.5% | Momentum: -9.5%,32.831,-96.7692
75056,The Colony,TX,512759,Estable,95.1,Crecimiento24: 2.7% | Crecimiento25: 1.8% | Vacancia: 2.0% | Momentum: -15.3%,33.094,-96.8836
77504,Pasadena,TX,266957,Estable,95.1,Crecimiento24: 2.0% | Crecimiento25: 2.1% | Vacancia: 3.9% | Momentum: -8.1%,29.6501,-95.1885
79347,Muleshoe,TX,142615,Estable,95.1,Crecimiento24: 3.6% | Crecimiento25: 5.5% | Vacancia: 7.5% | Momentum: -1.2%,34.2193,-102.7496
77430,Damon,TX,360242,Estable,95.1,Crecimiento24: 0.6% | Crecimiento25: 4.9% | Vacancia: 2.7% | Momentum: -7.4%,29.3014,-95.7036
78577,Pharr,TX,165475,Estable,95.0,Crecimiento24: 8.8% | Crecimiento25: 1.0% | Vacancia: 4.1% | Momentum: -9.3%,26.1771,-98.187
79938,El Paso,TX,245663,Estable,94.7,Crecimiento24: 3.1% | Crecimiento25: 0.9% | Vacancia: 1.2% | Momentum: -13.0%,31.8045,-105.9661
78538,Edcouch,TX,144396,Estable,94.6,Crecimiento24: 17.9% | Crecimiento25: 3.8% | Vacancia: 4.2% | Momentum: -2.9%,26.3328,-97.9622
75497,Yantis,TX,375520,Estable,94.6,Crecimiento24: 0.5% | Crecimiento25: 4.2% | Vacancia: 8.4% | Momentum: -12.7%,32.9257,-95.5311
77968,Inez,TX,369165,Estable,94.6,Crecimiento24: 2.8% | Crecimiento25: 2.6% | Vacancia: 4.6% | Momentum: -4.8%,28.8994,-96.8003
77450,Katy,TX,386245,Estable,94.5,Crecimiento24: 1.8% | Crecimiento25: 2.4% | Vacancia: 1.3% | Momentum: -13.5%,29.745,-95.7326
75672,Marshall,TX,207456,Estable,94.4,Crecimiento24: 2.3% | Crecimiento25: 4.3% | Vacancia: 5.9% | Momentum: -2.7%,32.5165,-94.3251
77024,Houston,TX,1252713,Estable,94.3,Crecimiento24: 4.7% | Crecimiento25: 8.6% | Vacancia: 6.6% | Momentum: -1.1%,29.7696,-95.5201
77517,,TX,381284,Estable,94.3,Crecimiento24: 1.1% | Crecimiento25: 3.1% | Vacancia: 1.8% | Momentum: -8.6%,29.3673,-95.1361
76252,Muenster,TX,334740,Estable,94.3,Crecimiento24: 0.2% | Crecimiento25: 6.6% | Vacancia: 3.9% | Momentum: -7.3%,33.6595,-97.3624
76433,Bluff Dale,TX,479537,Estable,94.3,Crecimiento24: 1.4% | Crecimiento25: 3.5% | Vacancia: 3.7% | Momentum: -15.0%,32.2884,-98.0539
75013,Allen,TX,686939,Estable,94.2,Crecimiento24: 2.3% | Crecimiento25: 1.3% | Vacancia: 2.1% | Momentum: -18.8%,33.1186,-96.6773
77080,Houston,TX,352720,Estable,94.2,Crecimiento24: 2.7% | Crecimiento25: 1.5% | Vacancia: 3.5% | Momentum: -7.1%,29.8159,-95.523
77008,Houston,TX,599169,Estable,94.2,Crecimiento24: 4.8% | Crecimiento25: 1.8% | Vacancia: 3.0% | Momentum: -2.8%,29.7991,-95.4118
79901,El Paso,TX,136445,Estable,94.2,Crecimiento24: 10.6% | Crecimiento25: 0.6% | Vacancia: 10.0% | Momentum: -4.2%,31.7584,-106.4783
76450,Graham,TX,208931,Estable,94.1,Crecimiento24: 2.8% | Crecimiento25: 2.2% | Vacancia: 5.6% | Momentum: -14.3%,33.0993,-98.5832
75424,,TX,473288,Estable,94.1,Crecimiento24: 1.9% | Crecimiento25: 4.0% | Vacancia: 2.5% | Momentum: -14.4%,33.3061,-96.3901
75230,Dallas,TX,989998,Estable,94.0,Crecimiento24: 3.4% | Crecimiento25: 5.9% | Vacancia: 6.0% | Momentum: -11.7%,32.8999,-96.7897
75082,Richardson,TX,569470,Estable,93.9,Crecimiento24: 2.7% | Crecimiento25: 1.0% | Vacancia: 1.7% | Momentum: -14.7%,32.9865,-96.686
76689,Valley Mills,TX,321743,Estable,93.9,Crecimiento24: 1.6% | Crecimiento25: 5.1% | Vacancia: 5.7% | Momentum: -11.8%,31.6599,-97.4935
75078,Prosper,TX,793477,Estable,93.8,Crecimiento24: 2.2% | Crecimiento25: 1.2% | Vacancia: 1.6% | Momentum: -22.1%,33.2362,-96.7954
78209,San Antonio,TX,470514,Estable,93.8,Crecimiento24: 3.4% | Crecimiento25: 0.5% | Vacancia: 7.2% | Momentum: -6.4%,29.4821,-98.4554
75182,Sunnyvale,TX,641599,Estable,93.8,Crecimiento24: 2.6% | Crecimiento25: 1.3% | Vacancia: 0.8% | Momentum: -14.4%,32.797,-96.5616
78940,Fayetteville,TX,613251,Estable,93.8,Crecimiento24: 3.1% | Crecimiento25: 4.1% | Vacancia: 14.7% | Momentum: -5.3%,29.8868,-96.6463
77486,West Columbia,TX,257059,Estable,93.7,Crecimiento24: 2.1% | Crecimiento25: 1.2% | Vacancia: 5.0% | Momentum: -6.0%,29.1408,-95.6694
76233,Collinsville,TX,386764,Estable,93.7,Crecimiento24: 1.9% | Crecimiento25: 3.1% | Vacancia: 0.9% | Momentum: -12.5%,33.558,-96.9014
78840,Del Rio,TX,214809,Estable,93.5,Crecimiento24: 2.3% | Crecimiento25: 4.7% | Vacancia: 4.0% | Momentum: -5.1%,29.4102,-100.8932
77477,Stafford,TX,285598,Estable,93.5,Crecimiento24: 2.6% | Crecimiento25: 1.0% | Vacancia: 3.0% | Momentum: -10.5%,29.6228,-95.5678
76457,Hico,TX,346115,Estable,93.5,Crecimiento24: 2.0% | Crecimiento25: 6.6% | Vacancia: 8.8% | Momentum: -10.5%,31.9597,-98.0249
76054,Hurst,TX,413788,Estable,93.4,Crecimiento24: 2.3% | Crecimiento25: 1.4% | Vacancia: 1.5% | Momentum: -12.1%,32.8558,-97.1755
76102,Fort Worth,TX,288265,Estable,93.4,Crecimiento24: 1.1% | Crecimiento25: 3.3% | Vacancia: 8.0% | Momentum: -7.7%,32.7589,-97.328
77864,Madisonville,TX,234532,Estable,93.3,Crecimiento24: 0.9% | Crecimiento25: 3.7% | Vacancia: 7.4% | Momentum: -14.2%,30.9533,-95.9091
79562,Tuscola,TX,367816,Estable,93.3,Crecimiento24: 1.8% | Crecimiento25: 2.6% | Vacancia: 1.4% | Momentum: -8.7%,32.235,-99.8244
75024,Plano,TX,657246,Estable,93.0,Crecimiento24: 2.8% | Crecimiento25: 1.9% | Vacancia: 3.5% | Momentum: -15.9%,33.0752,-96.7843
75605,Longview,TX,280483,Estable,93.0,Crecimiento24: 1.2% | Crecimiento25: 3.0% | Vacancia: 4.1% | Momentum: -9.0%,32.5547,-94.7767
77807,Bryan,TX,289664,Estable,93.0,Crecimiento24: 2.6% | Crecimiento25: 0.8% | Vacancia: 6.5% | Momentum: -6.4%,30.6711,-96.4799
76021,Bedford,TX,400768,Estable,92.9,Crecimiento24: 2.3% | Crecimiento25: 1.2% | Vacancia: 1.3% | Momentum: -12.3%,32.8536,-97.1358
77575,Liberty,TX,217507,Estable,92.9,Crecimiento24: 2.6% | Crecimiento25: 1.3% | Vacancia: 6.3% | Momentum: -6.2%,30.0946,-94.7378
75640,Diana,TX,283950,Estable,92.8,Crecimiento24: 0.8% | Crecimiento25: 4.4% | Vacancia: 1.9% | Momentum: -8.8%,32.7698,-94.7032
78956,Schulenburg,TX,377489,Estable,92.7,Crecimiento24: 0.5% | Crecimiento25: 3.8% | Vacancia: 12.6% | Momentum: -5.2%,29.6882,-96.9106
77005,Houston,TX,1596719,Estable,92.6,Crecimiento24: 4.3% | Crecimiento25: 8.1% | Vacancia: 2.2% | Momentum: -1.1%,29.7179,-95.4263
77659,Sour Lake,TX,262409,Estable,92.5,Crecimiento24: 0.9% | Crecimiento25: 3.6% | Vacancia: 4.4% | Momentum: -4.8%,30.1491,-94.3733
75472,,TX,259294,Estable,92.5,Crecimiento24: 1.1% | Crecimiento25: 4.2% | Vacancia: 10.4% | Momentum: -11.5%,32.9007,-95.8903
76638,Crawford,TX,488071,Estable,92.5,Crecimiento24: 2.2% | Crecimiento25: 1.9% | Vacancia: 2.4% | Momentum: -14.0%,31.5598,-97.39
76636,Covington,TX,365050,Estable,92.4,Crecimiento24: 3.0% | Crecimiento25: 6.2% | Vacancia: 2.8% | Momentum: -9.4%,32.1595,-97.2591
78056,Mico,TX,561253,Estable,92.2,Crecimiento24: -0.0% | Crecimiento25: 4.9% | Vacancia: 7.3% | Momentum: -11.3%,29.5441,-98.9231
79853,Tornillo,TX,163590,Estable,92.2,Crecimiento24: 4.9% | Crecimiento25: 0.9% | Vacancia: 2.4% | Momentum: -7.1%,31.4407,-106.0765
79508,Buffalo Gap,TX,233418,Estable,92.1,Crecimiento24: 2.9% | Crecimiento25: 2.6% | Vacancia: 5.0% | Momentum: -5.7%,32.2894,-99.8103
76240,Gainesville,TX,280391,Estable,92.1,Crecimiento24: 0.1% | Crecimiento25: 4.4% | Vacancia: 3.5% | Momentum: -11.3%,33.6547,-97.1583
76890,Zephyr,TX,375119,Estable,92.0,Crecimiento24: 0.4% | Crecimiento25: 6.8% | Vacancia: 9.1% | Momentum: -10.6%,31.6694,-98.8182
76088,Weatherford,TX,451747,Estable,92.0,Crecimiento24: 1.4% | Crecimiento25: 2.9% | Vacancia: 1.3% | Momentum: -10.5%,32.8478,-97.8606
76626,Blooming Grove,TX,242223,Estable,92.0,Crecimiento24: 2.8% | Crecimiento25: 8.6% | Vacancia: 11.6% | Momentum: -6.4%,32.0758,-96.701
76310,Wichita Falls,TX,243776,Estable,91.9,Crecimiento24: 1.2% | Crecimiento25: 3.1% | Vacancia: 3.2% | Momentum: -10.7%,33.8581,-98.5755
77566,Lake Jackson,TX,268617,Estable,91.8,Crecimiento24: 2.0% | Crecimiento25: 1.6% | Vacancia: 2.8% | Momentum: -5.4%,29.0393,-95.4401
75077,Highland Village,TX,499295,Estable,91.6,Crecimiento24: 2.1% | Crecimiento25: 1.7% | Vacancia: 1.0% | Momentum: -13.6%,33.0775,-97.0704
77905,Victoria,TX,258852,Estable,91.6,Crecimiento24: 1.6% | Crecimiento25: 2.5% | Vacancia: 4.7% | Momentum: -5.9%,28.7525,-97.0338
77498,Sugar Land,TX,329809,Estable,91.5,Crecimiento24: 2.2% | Crecimiento25: 0.9% | Vacancia: 2.3% | Momentum: -13.3%,29.6396,-95.65
75783,Quitman,TX,249045,Estable,91.3,Crecimiento24: 0.3% | Crecimiento25: 4.6% | Vacancia: 8.7% | Momentum: -11.1%,32.8049,-95.4302
76823,Bangs,TX,176314,Estable,91.3,Crecimiento24: 0.9% | Crecimiento25: 3.0% | Vacancia: 7.9% | Momentum: -11.8%,31.7503,-99.1568
75447,Ivanhoe,TX,377375,Estable,91.2,Crecimiento24: 0.5% | Crecimiento25: 3.5% | Vacancia: 3.3% | Momentum: -13.9%,33.7612,-96.1193
76627,Blum,TX,304922,Estable,91.1,Crecimiento24: 7.2% | Crecimiento25: 7.1% | Vacancia: 9.1% | Momentum: -4.1%,32.1052,-97.3652
75201,Dallas,TX,953673,Estable,91.0,Crecimiento24: 0.4% | Crecimiento25: 4.0% | Vacancia: 8.7% | Momentum: -7.3%,32.7904,-96.8044
76802,Early,TX,243729,Estable,90.6,Crecimiento24: -0.4% | Crecimiento25: 5.1% | Vacancia: 7.2% | Momentum: -9.9%,31.7874,-98.9229
77074,Houston,TX,224487,Estable,90.5,Crecimiento24: 3.1% | Crecimiento25: 0.7% | Vacancia: 6.2% | Momentum: -10.7%,29.6896,-95.5106
78543,Elsa,TX,118727,Estable,90.5,Crecimiento24: 18.3% | Crecimiento25: 5.2% | Vacancia: 2.9% | Momentum: -4.5%,26.2974,-97.9884
78013,Comfort,TX,557378,Estable,90.1,Crecimiento24: 1.7% | Crecimiento25: 2.9% | Vacancia: 8.4% | Momentum: -9.7%,29.9677,-98.905
79101,Amarillo,TX,108735,Estable,90.0,Crecimiento24: 2.4% | Crecimiento25: 3.4% | Vacancia: 7.2% | Momentum: -9.6%,35.2032,-101.8421
79119,Amarillo,TX,374047,Estable,89.9,Crecimiento24: 2.0% | Crecimiento25: 1.5% | Vacancia: 2.6% | Momentum: -9.8%,35.0642,-101.9743
75703,Tyler,TX,346989,Estable,89.5,Crecimiento24: 3.3% | Crecimiento25: 0.5% | Vacancia: 6.3% | Momentum: -11.3%,32.2768,-95.3031
75964,Nacogdoches,TX,197712,Estable,89.5,Crecimiento24: 4.3% | Crecimiento25: 0.6% | Vacancia: 3.6% | Momentum: -6.7%,31.6737,-94.6932
75771,Lindale,TX,310478,Estable,89.3,Crecimiento24: 2.7% | Crecimiento25: 0.6% | Vacancia: 7.7% | Momentum: -12.9%,32.5062,-95.4006
78589,San Juan,TX,178654,Estable,89.2,Crecimiento24: 8.9% | Crecimiento25: 0.6% | Vacancia: 2.5% | Momentum: -9.8%,26.2044,-98.1537
76624,,TX,345398,Estable,89.1,Crecimiento24: 0.0% | Crecimiento25: 4.2% | Vacancia: 4.9% | Momentum: -13.9%,31.661,-96.9882
75757,Bullard,TX,370883,Estable,89.0,Crecimiento24: 1.8% | Crecimiento25: 1.7% | Vacancia: 5.4% | Momentum: -12.5%,32.1095,-95.3342
75033,Frisco,TX,686936,Estable,88.7,Crecimiento24: 1.8% | Crecimiento25: 1.7% | Vacancia: 1.8% | Momentum: -19.7%,33.2559,-96.8853
75025,Plano,TX,578097,Estable,88.4,Crecimiento24: 3.0% | Crecimiento25: 1.1% | Vacancia: 1.1% | Momentum: -16.6%,33.0784,-96.7291
75034,Frisco,TX,697359,Estable,88.4,Crecimiento24: 2.8% | Crecimiento25: 0.8% | Vacancia: 3.2% | Momentum: -18.1%,33.1499,-96.8241
78215,San Antonio,TX,416744,Estable,88.3,Crecimiento24: 2.9% | Crecimiento25: 1.5% | Vacancia: 16.8% | Momentum: -5.9%,29.4413,-98.4793
78503,McAllen,TX,182468,Estable,88.2,Crecimiento24: 8.8% | Crecimiento25: 0.7% | Vacancia: 4.7% | Momentum: -9.8%,26.1771,-98.252
75706,Tyler,TX,258307,Estable,88.1,Crecimiento24: 2.7% | Crecimiento25: 0.7% | Vacancia: 9.3% | Momentum: -11.5%,32.4441,-95.331
77389,Spring,TX,502035,Estable,88.0,Crecimiento24: 0.5% | Crecimiento25: 3.7% | Vacancia: 1.2% | Momentum: -12.6%,30.1044,-95.5066
76039,Euless,TX,366449,Estable,87.9,Crecimiento24: 1.9% | Crecimiento25: 1.3% | Vacancia: 2.0% | Momentum: -12.5%,32.8582,-97.0832
75167,Waxahachie,TX,503112,Estable,87.9,Crecimiento24: 1.7% | Crecimiento25: 2.9% | Vacancia: 0.5% | Momentum: -13.0%,32.3773,-96.9162
79102,Amarillo,TX,149122,Estable,87.3,Crecimiento24: 1.5% | Crecimiento25: 2.9% | Vacancia: 6.2% | Momentum: -8.5%,35.1999,-101.8496
76901,,TX,214709,Estable,87.2,Crecimiento24: 2.4% | Crecimiento25: 2.6% | Vacancia: 4.6% | Momentum: -7.1%,31.4782,-100.4818
77077,Houston,TX,395626,Estable,87.1,Crecimiento24: 2.1% | Crecimiento25: 1.4% | Vacancia: 5.8% | Momentum: -7.3%,29.7477,-95.603
78248,San Antonio,TX,502763,Estable,86.9,Crecimiento24: 1.8% | Crecimiento25: 1.7% | Vacancia: 2.1% | Momentum: -11.5%,29.5894,-98.5201
78562,La Villa,TX,110644,Estable,86.9,Crecimiento24: 8.2% | Crecimiento25: 4.4% | Vacancia: 1.3% | Momentum: -10.0%,26.2999,-97.9247
77019,Houston,TX,692273,Estable,86.7,Crecimiento24: 2.5% | Crecimiento25: 1.7% | Vacancia: 6.5% | Momentum: -2.5%,29.7517,-95.4054
78586,San Benito,TX,152145,Estable,86.6,Crecimiento24: 0.6% | Crecimiento25: 5.1% | Vacancia: 3.1% | Momentum: -5.9%,26.1337,-97.6447
76801,Brownwood,TX,169156,Estable,86.4,Crecimiento24: -0.1% | Crecimiento25: 3.7% | Vacancia: 9.6% | Momentum: -7.5%,31.7754,-98.9915
78121,La Vernia,TX,494618,Estable,85.8,Crecimiento24: 0.7% | Crecimiento25: 3.1% | Vacancia: 1.5% | Momentum: -11.4%,29.3509,-98.113
76692,Whitney,TX,221290,Estable,85.8,Crecimiento24: 2.5% | Crecimiento25: 2.9% | Vacancia: 13.0% | Momentum: -10.0%,31.9713,-97.3463
75173,,TX,378833,Estable,85.8,Crecimiento24: 1.8% | Crecimiento25: 1.2% | Vacancia: 3.3% | Momentum: -15.6%,33.0593,-96.3877
77007,Houston,TX,529546,Estable,85.7,Crecimiento24: 2.8% | Crecimiento25: 0.3% | Vacancia: 4.9% | Momentum: -5.1%,29.7736,-95.4034
78933,Cat Spring,TX,632904,Estable,85.7,Crecimiento24: 1.8% | Crecimiento25: 5.5% | Vacancia: 12.1% | Momentum: -4.5%,29.7512,-96.39
76064,Maypearl,TX,365883,Estable,85.7,Crecimiento24: 0.5% | Crecimiento25: 2.9% | Vacancia: 1.1% | Momentum: -11.2%,32.2993,-97.0271
77873,Richards,TX,424236,Estable,85.7,Crecimiento24: -0.2% | Crecimiento25: 6.4% | Vacancia: 15.5% | Momentum: -8.4%,30.5796,-95.8959
75007,Carrollton,TX,413312,Estable,85.6,Crecimiento24: 2.6% | Crecimiento25: 0.6% | Vacancia: 1.6% | Momentum: -13.4%,33.0033,-96.882
75773,Mineola,TX,273923,Estable,85.3,Crecimiento24: 0.1% | Crecimiento25: 3.5% | Vacancia: 4.1% | Momentum: -12.6%,32.6661,-95.487
75010,Carrollton,TX,545276,Estable,84.6,Crecimiento24: 2.3% | Crecimiento25: 1.1% | Vacancia: 3.4% | Momentum: -14.6%,33.0304,-96.8777
75752,Athens,TX,343462,Estable,84.5,Crecimiento24: -1.2% | Crecimiento25: 5.0% | Vacancia: 6.8% | Momentum: -10.4%,32.2151,-95.79
78595,Sullivan City,TX,125784,Estable,84.5,Crecimiento24: 13.7% | Crecimiento25: 1.9% | Vacancia: 3.2% | Momentum: -10.2%,26.272,-98.5627
75603,Longview,TX,229270,Estable,84.4,Crecimiento24: -0.4% | Crecimiento25: 4.2% | Vacancia: 5.5% | Momentum: -6.0%,32.4264,-94.7117
77534,Danbury,TX,271939,Estable,84.4,Crecimiento24: 1.0% | Crecimiento25: 2.8% | Vacancia: 5.3% | Momentum: -5.0%,29.2291,-95.3435
76234,Decatur,TX,431951,Estable,84.3,Crecimiento24: 0.6% | Crecimiento25: 2.7% | Vacancia: 3.8% | Momentum: -11.2%,33.2351,-97.574
75645,,TX,267333,Estable,84.2,Crecimiento24: 1.1% | Crecimiento25: 2.9% | Vacancia: 3.4% | Momentum: -11.1%,32.6044,-94.8491
78934,Columbus,TX,306995,Estable,84.2,Crecimiento24: 1.2% | Crecimiento25: 6.5% | Vacancia: 11.9% | Momentum: -4.9%,29.7032,-96.5527
78583,Rio Hondo,TX,194158,Estable,84.2,Crecimiento24: -0.1% | Crecimiento25: 3.7% | Vacancia: 14.3% | Momentum: -9.8%,26.2339,-97.5513
78663,Round Mountain,TX,879985,Estable,84.1,Crecimiento24: 5.3% | Crecimiento25: 0.5% | Vacancia: 5.4% | Momentum: -19.9%,30.4429,-98.4365
76673,Mount Calm,TX,271888,Estable,84.1,Crecimiento24: 3.0% | Crecimiento25: 6.3% | Vacancia: 9.3% | Momentum: -5.8%,31.7575,-96.8944
75949,Huntington,TX,208434,Estable,84.0,Crecimiento24: 0.3% | Crecimiento25: 3.9% | Vacancia: 7.1% | Momentum: -7.5%,31.2837,-94.5662
77474,Sealy,TX,378431,Estable,83.8,Crecimiento24: 0.7% | Crecimiento25: 2.6% | Vacancia: 4.0% | Momentum: -8.1%,29.7826,-96.1592
76856,Mason,TX,366017,Estable,83.5,Crecimiento24: 0.8% | Crecimiento25: 10.0% | Vacancia: 16.5% | Momentum: -8.6%,30.7434,-99.2261
77027,Houston,TX,784373,Estable,83.1,Crecimiento24: 2.2% | Crecimiento25: 3.6% | Vacancia: 9.9% | Momentum: -1.7%,29.7396,-95.446
75440,Emory,TX,311037,Estable,82.7,Crecimiento24: 0.8% | Crecimiento25: 3.0% | Vacancia: 8.1% | Momentum: -10.2%,32.875,-95.7418
75486,Sumner,TX,288554,Estable,82.5,Crecimiento24: -0.6% | Crecimiento25: 6.1% | Vacancia: 1.0% | Momentum: -11.6%,33.7589,-95.6807
79124,Amarillo,TX,372727,Estable,82.4,Crecimiento24: 1.7% | Crecimiento25: 2.2% | Vacancia: 2.4% | Momentum: -9.7%,35.2703,-101.943
76044,Godley,TX,441984,Estable,82.1,Crecimiento24: -0.1% | Crecimiento25: 3.6% | Vacancia: 1.8% | Momentum: -13.3%,32.4282,-97.5349
75704,Tyler,TX,249278,Estable,81.6,Crecimiento24: 4.0% | Crecimiento25: 0.3% | Vacancia: 12.0% | Momentum: -11.9%,32.3738,-95.407
75110,Corsicana,TX,190738,Estable,81.4,Crecimiento24: 0.5% | Crecimiento25: 4.5% | Vacancia: 4.7% | Momentum: -13.0%,32.0868,-96.4762
78549,Hargill,TX,94990,Estable,80.8,Crecimiento24: 9.5% | Crecimiento25: 3.0% | Vacancia: 8.2% | Momentum: -5.0%,26.4671,-98.0393
75414,Bells,TX,371061,Estable,80.6,Crecimiento24: 0.3% | Crecimiento25: 3.4% | Vacancia: 5.8% | Momentum: -15.3%,33.6178,-96.4237
76262,Roanoke,TX,623677,Estable,80.5,Crecimiento24: 1.5% | Crecimiento25: 2.0% | Vacancia: 1.5% | Momentum: -15.3%,33.0211,-97.2127
76073,Paradise,TX,464657,Estable,80.4,Crecimiento24: 2.1% | Crecimiento25: 0.9% | Vacancia: 2.5% | Momentum: -12.7%,33.0826,-97.6974
77098,Houston,TX,686203,Estable,79.9,Crecimiento24: 2.9% | Crecimiento25: 2.1% | Vacancia: 6.9% | Momentum: -2.0%,29.735,-95.4118
76935,Christoval,TX,449283,Estable,79.7,Crecimiento24: 0.9% | Crecimiento25: 10.9% | Vacancia: 12.5% | Momentum: -4.0%,31.2346,-100.5203
76442,Comanche,TX,204280,Estable,79.1,Crecimiento24: -1.5% | Crecimiento25: 5.0% | Vacancia: 10.2% | Momentum: -10.1%,31.9116,-98.6082
75763,,TX,263526,Estable,78.8,Crecimiento24: 0.3% | Crecimiento25: 3.0% | Vacancia: 7.9% | Momentum: -14.4%,32.0535,-95.5163
76903,San Angelo,TX,162026,Estable,78.7,Crecimiento24: -0.6% | Crecimiento25: 6.6% | Vacancia: 6.5% | Momentum: -4.2%,31.4707,-100.4386
78004,Bergheim,TX,691379,Estable,78.6,Crecimiento24: 1.8% | Crecimiento25: 4.9% | Vacancia: 0.0% | Momentum: -9.9%,29.8274,-98.5753
76043,Glen Rose,TX,388136,Estable,78.4,Crecimiento24: 0.5% | Crecimiento25: 2.8% | Vacancia: 3.3% | Momentum: -13.5%,32.2298,-97.7629
75075,Plano,TX,471794,Estable,78.2,Crecimiento24: 5.0% | Crecimiento25: -0.4% | Vacancia: 2.7% | Momentum: -12.6%,33.025,-96.7397
76248,Keller,TX,583865,Estable,78.0,Crecimiento24: 1.2% | Crecimiento25: 2.0% | Vacancia: 0.8% | Momentum: -14.5%,32.9276,-97.2489
77831,Bedias,TX,341517,Estable,77.8,Crecimiento24: -1.2% | Crecimiento25: 5.2% | Vacancia: 14.8% | Momentum: -12.1%,30.7065,-95.9546
75039,Irving,TX,642864,Estable,77.7,Crecimiento24: 1.1% | Crecimiento25: 3.1% | Vacancia: 6.6% | Momentum: -12.7%,32.8697,-96.9389
79343,Lorenzo,TX,102876,Estable,77.6,Crecimiento24: -1.8% | Crecimiento25: 6.2% | Vacancia: 7.6% | Momentum: 5.3%,33.6666,-101.5277
76273,Whitesboro,TX,352843,Estable,77.1,Crecimiento24: 0.1% | Crecimiento25: 5.1% | Vacancia: 1.4% | Momentum: -11.9%,33.659,-96.879
77665,Winnie,TX,244546,Estable,77.0,Crecimiento24: -1.0% | Crecimiento25: 5.1% | Vacancia: 4.5% | Momentum: -3.0%,29.8157,-94.3395
77056,Houston,TX,663475,Estable,76.7,Crecimiento24: 2.7% | Crecimiento25: 2.8% | Vacancia: 10.9% | Momentum: -1.4%,29.7446,-95.4683
75961,Nacogdoches,TX,196931,Estable,76.7,Crecimiento24: 4.7% | Crecimiento25: 0.5% | Vacancia: 8.6% | Momentum: -5.6%,31.5611,-94.5
75490,Trenton,TX,396497,Estable,76.4,Crecimiento24: 1.4% | Crecimiento25: 2.5% | Vacancia: 4.6% | Momentum: -16.1%,33.4235,-96.3398
75081,Richardson,TX,397764,Estable,75.8,Crecimiento24: 2.7% | Crecimiento25: 1.2% | Vacancia: 1.8% | Momentum: -12.2%,32.9462,-96.7058
77584,Pearland,TX,387180,Estable,75.7,Crecimiento24: 0.9% | Crecimiento25: 2.4% | Vacancia: 2.2% | Momentum: -11.7%,29.5405,-95.3208
77032,Houston,TX,192382,Estable,75.3,Crecimiento24: 2.0% | Crecimiento25: 1.2% | Vacancia: 3.3% | Momentum: -12.1%,29.9368,-95.3299
79765,Odessa,TX,322770,Estable,75.1,Crecimiento24: 1.8% | Crecimiento25: 3.2% | Vacancia: 1.7% | Momentum: 2.3%,31.9375,-102.3944
77030,Houston,TX,533016,Estable,75.1,Crecimiento24: 2.8% | Crecimiento25: 1.3% | Vacancia: 10.4% | Momentum: -2.6%,29.7041,-95.401
75438,Dodd City,TX,350094,Estable,75.1,Crecimiento24: -0.3% | Crecimiento25: 3.8% | Vacancia: 2.3% | Momentum: -15.1%,33.5647,-96.0619
78942,Giddings,TX,300521,Estable,75.0,Crecimiento24: -0.1% | Crecimiento25: 3.2% | Vacancia: 6.4% | Momentum: -8.1%,30.1777,-96.9332
77830,Anderson,TX,535366,Estable,74.7,Crecimiento24: -0.3% | Crecimiento25: 4.7% | Vacancia: 6.7% | Momentum: -10.7%,30.5443,-96.0018
79525,Hawley,TX,247813,Estable,74.0,Crecimiento24: 3.4% | Crecimiento25: -0.0% | Vacancia: 2.9% | Momentum: -7.9%,32.6423,-99.9239
75109,,TX,396811,Estable,73.9,Crecimiento24: -0.5% | Crecimiento25: 4.1% | Vacancia: 6.9% | Momentum: -14.8%,31.9937,-96.4199
79019,Claude,TX,218119,Estable,73.9,Crecimiento24: 0.5% | Crecimiento25: 2.6% | Vacancia: 6.9% | Momentum: -8.1%,35.0967,-101.3813
79714,Andrews,TX,234937,Estable,73.7,Crecimiento24: -1.3% | Crecimiento25: 5.3% | Vacancia: 1.5% | Momentum: 0.4%,32.3201,-102.5409
75709,Tyler,TX,282604,Estable,73.5,Crecimiento24: 3.4% | Crecimiento25: -0.2% | Vacancia: 17.1% | Momentum: -12.6%,32.3078,-95.3956
78408,Corpus Christi,TX,91094,Estable,73.4,Crecimiento24: 1.9% | Crecimiento25: 1.7% | Vacancia: 8.3% | Momentum: 5.4%,27.7945,-97.4381
75770,,TX,354669,Estable,73.1,Crecimiento24: -0.3% | Crecimiento25: 4.3% | Vacancia: 10.2% | Momentum: -11.0%,32.1608,-95.5927
75144,Goodlow Park,TX,222014,Estable,73.0,Crecimiento24: -1.8% | Crecimiento25: 6.8% | Vacancia: 7.6% | Momentum: -13.0%,32.1275,-96.2298
78501,McAllen,TX,195372,Estable,72.8,Crecimiento24: 6.8% | Crecimiento25: -0.4% | Vacancia: 5.5% | Momentum: -11.1%,26.2154,-98.2359
76691,,TX,290760,Estable,71.7,Crecimiento24: 1.1% | Crecimiento25: 2.1% | Vacancia: 2.7% | Momentum: -14.8%,31.7754,-97.1258
79360,Seminole,TX,245626,Estable,70.4,Crecimiento24: 1.3% | Crecimiento25: 7.8% | Vacancia: 2.5% | Momentum: -0.5%,32.721,-102.6828
78377,Refugio,TX,148685,Estable,69.5,Crecimiento24: 2.8% | Crecimiento25: 4.1% | Vacancia: 12.4% | Momentum: 1.1%,28.3169,-97.2767
76458,Jacksboro,TX,205710,Estable,69.0,Crecimiento24: -15.1% | Crecimiento25: 23.3% | Vacancia: 9.0% | Momentum: -1.5%,33.2347,-98.1681
76444,De Leon,TX,197821,Estable,68.8,Crecimiento24: -0.7% | Crecimiento25: 3.8% | Vacancia: 6.8% | Momentum: -17.2%,32.1087,-98.5489
76687,Thornton,TX,315209,Estable,68.7,Crecimiento24: 3.2% | Crecimiento25: 3.7% | Vacancia: 23.8% | Momentum: -11.9%,31.4083,-96.5024
78405,Corpus Christi,TX,80161,Estable,68.3,Crecimiento24: -1.6% | Crecimiento25: 3.0% | Vacancia: 7.4% | Momentum: 8.3%,27.7762,-97.4271
77963,Goliad,TX,235559,Estable,68.0,Crecimiento24: -2.2% | Crecimiento25: 6.4% | Vacancia: 12.1% | Momentum: 3.0%,28.6993,-97.3783
77345,Houston,TX,412798,Estable,67.9,Crecimiento24: 1.6% | Crecimiento25: 1.4% | Vacancia: 1.5% | Momentum: -12.0%,30.0336,-95.261
75801,Palestine,TX,191447,Estable,67.4,Crecimiento24: 4.4% | Crecimiento25: -0.2% | Vacancia: 5.6% | Momentum: -11.3%,31.7588,-95.6342
79782,Stanton,TX,242759,Estable,67.0,Crecimiento24: -1.8% | Crecimiento25: 3.2% | Vacancia: 6.0% | Momentum: 3.1%,32.14,-101.8099
77868,Navasota,TX,271056,Estable,66.8,Crecimiento24: -0.5% | Crecimiento25: 4.1% | Vacancia: 4.5% | Momentum: -9.3%,30.3576,-96.0594
75702,Tyler,TX,141501,Estable,65.9,Crecimiento24: 6.3% | Crecimiento25: -0.3% | Vacancia: 7.5% | Momentum: -9.1%,32.362,-95.3117
76164,Fort Worth,TX,189764,Estable,65.8,Crecimiento24: -0.8% | Crecimiento25: 5.5% | Vacancia: 3.2% | Momentum: -13.4%,32.7811,-97.3546
75657,Jefferson,TX,168959,Estable,65.7,Crecimiento24: -4.7% | Crecimiento25: 10.8% | Vacancia: 15.0% | Momentum: -2.5%,32.8059,-94.3655
79843,Marfa,TX,312617,Estable,65.6,Crecimiento24: 5.9% | Crecimiento25: 1.5% | Vacancia: 16.3% | Momentum: -18.0%,30.293,-104.0848
77581,Pearland,TX,368651,Estable,65.3,Crecimiento24: 0.8% | Crecimiento25: 2.7% | Vacancia: 1.1% | Momentum: -10.4%,29.5617,-95.2721
78962,Weimar,TX,333160,Estable,63.0,Crecimiento24: 1.2% | Crecimiento25: 4.4% | Vacancia: 10.3% | Momentum: -2.1%,29.6787,-96.755
78631,Harper,TX,423064,Estable,61.8,Crecimiento24: -2.3% | Crecimiento25: 5.6% | Vacancia: 9.1% | Momentum: -8.8%,30.2816,-99.241
78363,Kingsville,TX,144108,Estable,61.0,Crecimiento24: -2.8% | Crecimiento25: 4.4% | Vacancia: 6.6% | Momentum: -1.9%,27.4229,-97.8407
79549,Snyder,TX,132606,Estable,59.8,Crecimiento24: -3.7% | Crecimiento25: 7.7% | Vacancia: 5.7% | Momentum: -0.3%,32.7451,-100.9175
75094,Murphy,TX,596978,Estable,59.3,Crecimiento24: 3.6% | Crecimiento25: 0.0% | Vacancia: 0.3% | Momentum: -17.2%,33.0148,-96.6189
79563,Tye,TX,123359,Estable,58.5,Crecimiento24: -4.8% | Crecimiento25: 8.8% | Vacancia: 11.1% | Momentum: -4.8%,32.4477,-99.8684
77434,Eagle Lake,TX,171476,Estable,58.3,Crecimiento24: -0.1% | Crecimiento25: 7.5% | Vacancia: 10.7% | Momentum: 2.9%,29.5842,-96.3354
79329,Idalou,TX,232999,Estable,55.2,Crecimiento24: 0.4% | Crecimiento25: 2.5% | Vacancia: 6.3% | Momentum: -8.0%,33.6504,-101.6786
75060,Irving,TX,295551,Estable,55.1,Crecimiento24: 3.9% | Crecimiento25: 0.4% | Vacancia: 1.8% | Momentum: -12.3%,32.8023,-96.9597
78045,Laredo,TX,280999,Estable,54.9,Crecimiento24: 0.4% | Crecimiento25: 2.5% | Vacancia: 1.4% | Momentum: -5.3%,27.6357,-99.5923
79065,Pampa,TX,105886,Estable,52.7,Crecimiento24: 7.6% | Crecimiento25: 0.4% | Vacancia: 9.0% | Momentum: 1.3%,35.538,-100.9579
78609,Buchanan Dam,TX,383414,Bajo Potencial,100.0,Crecimiento24: -8.8% | Crecimiento25: -4.0% | Vacancia: 19.1% | Momentum: -25.9%,30.7538,-98.4295
77046,Houston,TX,329738,Bajo Potencial,100.0,Crecimiento24: -5.4% | Crecimiento25: -6.6% | Vacancia: 9.5% | Momentum: -9.0%,29.733,-95.4306
76179,Fort Worth,TX,329679,Bajo Potencial,100.0,Crecimiento24: -4.3% | Crecimiento25: -1.7% | Vacancia: 1.3% | Momentum: -19.6%,32.9074,-97.4257
76028,Burleson,TX,343491,Bajo Potencial,100.0,Crecimiento24: -1.3% | Crecimiento25: 0.0% | Vacancia: 1.4% | Momentum: -16.4%,32.5316,-97.309
75211,Cockrell Hill,TX,235620,Bajo Potencial,100.0,Crecimiento24: -1.0% | Crecimiento25: 0.1% | Vacancia: 2.2% | Momentum: -15.4%,32.7319,-96.9057
76063,Mansfield,TX,442034,Bajo Potencial,100.0,Crecimiento24: -0.5% | Crecimiento25: -0.2% | Vacancia: 1.7% | Momentum: -15.8%,32.5773,-97.1416
76244,Fort Worth,TX,391564,Bajo Potencial,100.0,Crecimiento24: -2.3% | Crecimiento25: -0.8% | Vacancia: 2.0% | Momentum: -18.9%,32.931,-97.2843
77373,Spring,TX,248390,Bajo Potencial,100.0,Crecimiento24: -1.1% | Crecimiento25: -0.6% | Vacancia: 1.5% | Momentum: -16.6%,30.0532,-95.3773
78249,San Antonio,TX,305910,Bajo Potencial,100.0,Crecimiento24: -0.7% | Crecimiento25: -1.4% | Vacancia: 2.3% | Momentum: -14.8%,29.5612,-98.6117
77346,Atascocita,TX,316690,Bajo Potencial,100.0,Crecimiento24: -2.2% | Crecimiento25: -0.6% | Vacancia: 1.2% | Momentum: -15.7%,30.0042,-95.1728
75098,Wylie,TX,448079,Bajo Potencial,100.0,Crecimiento24: 0.4% | Crecimiento25: -1.1% | Vacancia: 1.8% | Momentum: -18.9%,33.0041,-96.5394
75068,Little Elm,TX,432328,Bajo Potencial,100.0,Crecimiento24: -2.4% | Crecimiento25: -1.1% | Vacancia: 1.1% | Momentum: -21.4%,33.1768,-96.9583
75067,Lewisville,TX,376599,Bajo Potencial,100.0,Crecimiento24: 0.8% | Crecimiento25: 0.5% | Vacancia: 2.4% | Momentum: -14.8%,33.0198,-96.9925
78254,San Antonio,TX,313225,Bajo Potencial,100.0,Crecimiento24: -3.1% | Crecimiento25: -1.7% | Vacancia: 1.1% | Momentum: -17.2%,29.5551,-98.7442
78253,San Antonio,TX,330517,Bajo Potencial,100.0,Crecimiento24: -4.5% | Crecimiento25: -1.6% | Vacancia: 2.7% | Momentum: -17.5%,29.4599,-98.7479
78745,Austin,TX,440989,Bajo Potencial,100.0,Crecimiento24: -7.1% | Crecimiento25: -5.1% | Vacancia: 2.3% | Momentum: -21.9%,30.2063,-97.7956
78640,Kyle,TX,319737,Bajo Potencial,100.0,Crecimiento24: -7.2% | Crecimiento25: -6.1% | Vacancia: 1.2% | Momentum: -27.9%,29.9966,-97.8335
77396,Humble,TX,263032,Bajo Potencial,100.0,Crecimiento24: -1.7% | Crecimiento25: 0.1% | Vacancia: 1.7% | Momentum: -15.2%,29.9507,-95.2622
75149,Mesquite,TX,247560,Bajo Potencial,100.0,Crecimiento24: 0.6% | Crecimiento25: -1.8% | Vacancia: 1.7% | Momentum: -17.3%,32.7678,-96.6082
78250,San Antonio,TX,246263,Bajo Potencial,100.0,Crecimiento24: -2.3% | Crecimiento25: -1.7% | Vacancia: 1.5% | Momentum: -15.9%,29.5054,-98.6688
78753,Austin,TX,368231,Bajo Potencial,100.0,Crecimiento24: -7.7% | Crecimiento25: -4.5% | Vacancia: 2.3% | Momentum: -21.3%,30.3649,-97.6827
75115,Desoto,TX,332545,Bajo Potencial,100.0,Crecimiento24: -1.2% | Crecimiento25: -0.5% | Vacancia: 1.9% | Momentum: -17.0%,32.6041,-96.8653
76137,Fort Worth,TX,325138,Bajo Potencial,100.0,Crecimiento24: -1.4% | Crecimiento25: -1.0% | Vacancia: 2.7% | Momentum: -18.5%,32.8664,-97.2891
78681,Round Rock,TX,500904,Bajo Potencial,100.0,Crecimiento24: -5.4% | Crecimiento25: -0.2% | Vacancia: 1.0% | Momentum: -22.4%,30.5083,-97.6789
78664,Round Rock,TX,357119,Bajo Potencial,100.0,Crecimiento24: -7.5% | Crecimiento25: -3.4% | Vacancia: 1.5% | Momentum: -25.9%,30.5145,-97.668
75216,Dallas,TX,183124,Bajo Potencial,100.0,Crecimiento24: -3.3% | Crecimiento25: -0.3% | Vacancia: 3.3% | Momentum: -17.7%,32.7086,-96.7955
75126,Forney,TX,327675,Bajo Potencial,100.0,Crecimiento24: -5.6% | Crecimiento25: -3.9% | Vacancia: 1.1% | Momentum: -21.8%,32.7491,-96.4598
78665,Round Rock,TX,425199,Bajo Potencial,100.0,Crecimiento24: -8.1% | Crecimiento25: -2.6% | Vacancia: 2.1% | Momentum: -26.7%,30.5145,-97.668
77044,Houston,TX,290436,Bajo Potencial,100.0,Crecimiento24: -1.7% | Crecimiento25: -0.3% | Vacancia: 1.8% | Momentum: -14.8%,29.8635,-95.1976
77469,Rosenberg,TX,349260,Bajo Potencial,100.0,Crecimiento24: -1.0% | Crecimiento25: 0.0% | Vacancia: 1.1% | Momentum: -15.7%,29.5511,-95.7329
78247,San Antonio,TX,284219,Bajo Potencial,100.0,Crecimiento24: -1.3% | Crecimiento25: -1.2% | Vacancia: 1.1% | Momentum: -15.0%,29.5855,-98.4071
78758,Austin,TX,395803,Bajo Potencial,100.0,Crecimiento24: -6.4% | Crecimiento25: -3.7% | Vacancia: 2.9% | Momentum: -18.0%,30.3764,-97.7078
75104,Cedar Hill,TX,316811,Bajo Potencial,100.0,Crecimiento24: -2.1% | Crecimiento25: -1.1% | Vacancia: 1.3% | Momentum: -18.2%,32.5885,-96.9438
78155,Seguin,TX,277103,Bajo Potencial,100.0,Crecimiento24: -3.0% | Crecimiento25: -3.1% | Vacancia: 3.2% | Momentum: -14.9%,29.5613,-97.9628
76133,Fort Worth,TX,266557,Bajo Potencial,100.0,Crecimiento24: -0.2% | Crecimiento25: -0.8% | Vacancia: 2.3% | Momentum: -16.7%,32.6526,-97.3758
77388,Spring,TX,301744,Bajo Potencial,100.0,Crecimiento24: -1.3% | Crecimiento25: 0.6% | Vacancia: 1.5% | Momentum: -15.1%,30.0505,-95.4695
76549,Killeen,TX,229732,Bajo Potencial,100.0,Crecimiento24: -2.4% | Crecimiento25: -1.4% | Vacancia: 3.1% | Momentum: -21.1%,31.0065,-97.841
78744,Austin,TX,356604,Bajo Potencial,100.0,Crecimiento24: -7.6% | Crecimiento25: -5.4% | Vacancia: 1.4% | Momentum: -25.2%,30.1876,-97.7472
76542,Killeen,TX,257831,Bajo Potencial,100.0,Crecimiento24: -2.4% | Crecimiento25: -0.8% | Vacancia: 2.1% | Momentum: -18.8%,31.0376,-97.6809
78748,Austin,TX,433815,Bajo Potencial,100.0,Crecimiento24: -7.2% | Crecimiento25: -4.1% | Vacancia: 2.2% | Momentum: -22.7%,30.1743,-97.8225
78223,San Antonio,TX,189802,Bajo Potencial,100.0,Crecimiento24: -4.9% | Crecimiento25: -3.3% | Vacancia: 3.8% | Momentum: -15.2%,29.3579,-98.4356
78704,Austin,TX,763462,Bajo Potencial,100.0,Crecimiento24: -11.1% | Crecimiento25: -6.2% | Vacancia: 4.3% | Momentum: -28.1%,30.2428,-97.7658
78227,San Antonio,TX,168886,Bajo Potencial,100.0,Crecimiento24: -5.9% | Crecimiento25: -1.7% | Vacancia: 3.2% | Momentum: -13.9%,29.4027,-98.6433
77493,Katy,TX,358122,Bajo Potencial,100.0,Crecimiento24: -1.6% | Crecimiento25: -0.8% | Vacancia: 2.4% | Momentum: -17.2%,29.8678,-95.8298
75165,Waxahachie,TX,353232,Bajo Potencial,100.0,Crecimiento24: -0.6% | Crecimiento25: -0.1% | Vacancia: 2.1% | Momentum: -15.6%,32.3808,-96.8374
77338,Humble,TX,235159,Bajo Potencial,100.0,Crecimiento24: -2.5% | Crecimiento25: -1.4% | Vacancia: 2.0% | Momentum: -17.4%,30.0041,-95.2825
76131,Saginaw,TX,343200,Bajo Potencial,100.0,Crecimiento24: -4.5% | Crecimiento25: -0.9% | Vacancia: 0.5% | Momentum: -20.0%,32.8632,-97.3377
76210,Corinth,TX,407309,Bajo Potencial,100.0,Crecimiento24: -0.7% | Crecimiento25: 0.3% | Vacancia: 0.8% | Momentum: -17.6%,33.1428,-97.0727
75050,Grand Prairie,TX,279981,Bajo Potencial,100.0,Crecimiento24: 1.0% | Crecimiento25: -0.3% | Vacancia: 1.7% | Momentum: -14.5%,32.7649,-97.0112
76513,Belton,TX,313554,Bajo Potencial,100.0,Crecimiento24: -2.4% | Crecimiento25: -1.2% | Vacancia: 2.2% | Momentum: -18.3%,31.0723,-97.472
78759,Austin,TX,670243,Bajo Potencial,100.0,Crecimiento24: -6.7% | Crecimiento25: -1.8% | Vacancia: 3.3% | Momentum: -19.7%,30.4036,-97.7526
78741,Austin,TX,358367,Bajo Potencial,100.0,Crecimiento24: -8.7% | Crecimiento25: -8.2% | Vacancia: 4.1% | Momentum: -24.2%,30.2315,-97.7223
76017,Arlington,TX,322687,Bajo Potencial,100.0,Crecimiento24: -0.5% | Crecimiento25: -0.4% | Vacancia: 1.8% | Momentum: -15.9%,32.6555,-97.1599
76502,Temple,TX,283645,Bajo Potencial,100.0,Crecimiento24: -5.4% | Crecimiento25: -1.4% | Vacancia: 2.4% | Momentum: -22.6%,31.071,-97.3898
77075,Houston,TX,254089,Bajo Potencial,100.0,Crecimiento24: 0.4% | Crecimiento25: 0.4% | Vacancia: 2.1% | Momentum: -12.9%,29.6223,-95.26
78233,San Antonio,TX,232980,Bajo Potencial,100.0,Crecimiento24: -2.5% | Crecimiento25: -2.2% | Vacancia: 2.0% | Momentum: -15.5%,29.5563,-98.3643
76108,Fort Worth,TX,292881,Bajo Potencial,100.0,Crecimiento24: -1.8% | Crecimiento25: -1.1% | Vacancia: 4.1% | Momentum: -17.8%,32.7822,-97.4969
78154,Schertz,TX,317526,Bajo Potencial,100.0,Crecimiento24: -3.1% | Crecimiento25: -1.7% | Vacancia: 1.7% | Momentum: -16.6%,29.579,-98.2778
78108,Cibolo,TX,337491,Bajo Potencial,100.0,Crecimiento24: -3.4% | Crecimiento25: -2.5% | Vacancia: 1.7% | Momentum: -16.8%,29.575,-98.228
78634,Hutto,TX,357973,Bajo Potencial,100.0,Crecimiento24: -8.0% | Crecimiento25: -2.8% | Vacancia: 0.9% | Momentum: -27.4%,30.5257,-97.5672
78610,Buda,TX,385981,Bajo Potencial,100.0,Crecimiento24: -6.6% | Crecimiento25: -5.1% | Vacancia: 0.9% | Momentum: -26.3%,30.0918,-97.8534
76227,Aubrey,TX,390861,Bajo Potencial,100.0,Crecimiento24: -3.5% | Crecimiento25: -1.5% | Vacancia: 1.3% | Momentum: -21.1%,33.292,-96.9879
78628,Georgetown,TX,497746,Bajo Potencial,100.0,Crecimiento24: -7.0% | Crecimiento25: -2.1% | Vacancia: 1.5% | Momentum: -24.8%,30.6411,-97.7511
78653,Manor,TX,342864,Bajo Potencial,100.0,Crecimiento24: -9.0% | Crecimiento25: -4.4% | Vacancia: 1.3% | Momentum: -29.4%,30.3388,-97.5323
79423,Lubbock,TX,230141,Bajo Potencial,100.0,Crecimiento24: -0.7% | Crecimiento25: -1.7% | Vacancia: 2.6% | Momentum: -12.2%,33.5146,-101.8795
78109,Converse,TX,252945,Bajo Potencial,100.0,Crecimiento24: -3.0% | Crecimiento25: -2.4% | Vacancia: 0.6% | Momentum: -17.7%,29.5173,-98.3217
76123,Fort Worth,TX,308037,Bajo Potencial,100.0,Crecimiento24: -4.2% | Crecimiento25: -2.2% | Vacancia: 1.2% | Momentum: -20.8%,32.6254,-97.3658
78237,San Antonio,TX,129049,Bajo Potencial,100.0,Crecimiento24: -7.5% | Crecimiento25: -3.9% | Vacancia: 3.1% | Momentum: -12.3%,29.4208,-98.5645
76522,Copperas Cove,TX,221177,Bajo Potencial,100.0,Crecimiento24: -1.5% | Crecimiento25: -0.7% | Vacancia: 2.2% | Momentum: -19.7%,31.2029,-97.9301
78244,San Antonio,TX,224750,Bajo Potencial,100.0,Crecimiento24: -3.3% | Crecimiento25: -3.7% | Vacancia: 1.4% | Momentum: -18.9%,29.4793,-98.3476
75087,Rockwall,TX,453910,Bajo Potencial,100.0,Crecimiento24: -0.9% | Crecimiento25: -0.2% | Vacancia: 1.9% | Momentum: -18.0%,32.9492,-96.4418
78218,San Antonio,TX,206232,Bajo Potencial,100.0,Crecimiento24: -2.5% | Crecimiento25: -3.0% | Vacancia: 1.9% | Momentum: -14.5%,29.4969,-98.4032
78028,Kerrville,TX,354869,Bajo Potencial,100.0,Crecimiento24: -0.7% | Crecimiento25: -1.3% | Vacancia: 4.4% | Momentum: -14.7%,30.0416,-99.1408
77073,Houston,TX,238763,Bajo Potencial,100.0,Crecimiento24: -2.4% | Crecimiento25: -1.1% | Vacancia: 2.1% | Momentum: -17.3%,30.0198,-95.4087
76180,North Richland Hills,TX,338211,Bajo Potencial,100.0,Crecimiento24: 1.0% | Crecimiento25: -0.2% | Vacancia: 2.4% | Momentum: -13.8%,32.84,-97.225
77583,Iowa Colony,TX,328783,Bajo Potencial,100.0,Crecimiento24: -3.4% | Crecimiento25: -0.3% | Vacancia: 3.1% | Momentum: -14.7%,29.4203,-95.4537
77066,Houston,TX,249250,Bajo Potencial,100.0,Crecimiento24: -0.6% | Crecimiento25: 0.3% | Vacancia: 1.2% | Momentum: -15.5%,29.961,-95.4947
75224,Dallas,TX,238343,Bajo Potencial,100.0,Crecimiento24: -1.2% | Crecimiento25: -0.0% | Vacancia: 2.2% | Momentum: -14.2%,32.7114,-96.8387
78626,Georgetown,TX,367705,Bajo Potencial,100.0,Crecimiento24: -7.9% | Crecimiento25: -2.1% | Vacancia: 2.3% | Momentum: -25.6%,30.633,-97.6707
77014,Houston,TX,253683,Bajo Potencial,100.0,Crecimiento24: -1.5% | Crecimiento25: 0.6% | Vacancia: 3.0% | Momentum: -15.7%,29.9796,-95.4625
78723,Austin,TX,507949,Bajo Potencial,100.0,Crecimiento24: -9.3% | Crecimiento25: -5.1% | Vacancia: 2.7% | Momentum: -18.7%,30.3085,-97.6849
76001,Arlington,TX,356625,Bajo Potencial,100.0,Crecimiento24: -1.3% | Crecimiento25: -0.8% | Vacancia: 0.9% | Momentum: -17.4%,32.6289,-97.1517
76002,Arlington,TX,346133,Bajo Potencial,100.0,Crecimiento24: -1.2% | Crecimiento25: -1.3% | Vacancia: 0.9% | Momentum: -17.8%,32.6255,-97.0784
78210,San Antonio,TX,162738,Bajo Potencial,100.0,Crecimiento24: -9.2% | Crecimiento25: -5.9% | Vacancia: 7.2% | Momentum: -16.5%,29.3977,-98.4658
75189,Royse City,TX,339026,Bajo Potencial,100.0,Crecimiento24: -5.2% | Crecimiento25: -2.8% | Vacancia: 1.5% | Momentum: -21.5%,32.9628,-96.3648
77047,Houston,TX,256730,Bajo Potencial,100.0,Crecimiento24: -0.7% | Crecimiento25: 0.1% | Vacancia: 1.4% | Momentum: -15.0%,29.6254,-95.375
78602,Bastrop,TX,362253,Bajo Potencial,100.0,Crecimiento24: -8.6% | Crecimiento25: -1.5% | Vacancia: 2.8% | Momentum: -25.3%,30.1388,-97.2921
78749,Austin,TX,573335,Bajo Potencial,100.0,Crecimiento24: -5.0% | Crecimiento25: -2.3% | Vacancia: 2.4% | Momentum: -20.6%,30.2166,-97.8508
78023,Helotes,TX,430677,Bajo Potencial,100.0,Crecimiento24: -1.7% | Crecimiento25: -0.2% | Vacancia: 1.1% | Momentum: -14.7%,29.6321,-98.7542
78242,San Antonio,TX,158947,Bajo Potencial,100.0,Crecimiento24: -5.0% | Crecimiento25: -2.5% | Vacancia: 1.8% | Momentum: -14.8%,29.3509,-98.6109
79416,Lubbock,TX,201449,Bajo Potencial,100.0,Crecimiento24: -0.4% | Crecimiento25: -1.7% | Vacancia: 4.3% | Momentum: -13.4%,33.5924,-101.9367
78217,San Antonio,TX,231375,Bajo Potencial,100.0,Crecimiento24: -1.5% | Crecimiento25: -2.5% | Vacancia: 4.3% | Momentum: -14.7%,29.5395,-98.4194
78229,San Antonio,TX,197538,Bajo Potencial,100.0,Crecimiento24: -0.9% | Crecimiento25: -4.8% | Vacancia: 7.8% | Momentum: -14.8%,29.5042,-98.5697
77301,Conroe,TX,238538,Bajo Potencial,100.0,Crecimiento24: -0.7% | Crecimiento25: -2.2% | Vacancia: 2.1% | Momentum: -14.6%,30.3125,-95.4527
76140,Everman,TX,253682,Bajo Potencial,100.0,Crecimiento24: -0.9% | Crecimiento25: -1.5% | Vacancia: 2.1% | Momentum: -17.1%,32.6192,-97.2735
77067,Houston,TX,219159,Bajo Potencial,100.0,Crecimiento24: 0.7% | Crecimiento25: -0.9% | Vacancia: 3.3% | Momentum: -14.3%,29.9547,-95.4522
78239,San Antonio,TX,224451,Bajo Potencial,100.0,Crecimiento24: -3.0% | Crecimiento25: -2.7% | Vacancia: 2.6% | Momentum: -16.2%,29.5182,-98.3627
76016,Arlington,TX,350294,Bajo Potencial,100.0,Crecimiento24: -0.0% | Crecimiento25: -0.6% | Vacancia: 1.8% | Momentum: -15.0%,32.6889,-97.1905
77530,Channelview,TX,214389,Bajo Potencial,100.0,Crecimiento24: -0.5% | Crecimiento25: -0.7% | Vacancia: 3.3% | Momentum: -14.3%,29.7914,-95.1317
77086,Houston,TX,223695,Bajo Potencial,100.0,Crecimiento24: 1.0% | Crecimiento25: -0.5% | Vacancia: 2.1% | Momentum: -14.4%,29.9227,-95.4939
76134,Fort Worth,TX,254432,Bajo Potencial,100.0,Crecimiento24: -0.3% | Crecimiento25: -1.0% | Vacancia: 1.9% | Momentum: -17.1%,32.6469,-97.3325
77020,Houston,TX,180645,Bajo Potencial,100.0,Crecimiento24: -3.1% | Crecimiento25: -1.8% | Vacancia: 3.9% | Momentum: -14.1%,29.7758,-95.3121
75181,Mesquite,TX,331684,Bajo Potencial,100.0,Crecimiento24: -2.8% | Crecimiento25: -1.0% | Vacancia: 1.3% | Momentum: -19.4%,32.7272,-96.5669
76012,Arlington,TX,343795,Bajo Potencial,100.0,Crecimiento24: 0.3% | Crecimiento25: 0.1% | Vacancia: 2.9% | Momentum: -14.8%,32.754,-97.1348
76036,Crowley,TX,325969,Bajo Potencial,100.0,Crecimiento24: -4.0% | Crecimiento25: -1.0% | Vacancia: 1.7% | Momentum: -18.7%,32.5814,-97.3703
78750,Austin,TX,605359,Bajo Potencial,100.0,Crecimiento24: -5.9% | Crecimiento25: -1.3% | Vacancia: 1.1% | Momentum: -19.6%,30.4224,-97.7967
77016,Houston,TX,171092,Bajo Potencial,100.0,Crecimiento24: -4.1% | Crecimiento25: -0.0% | Vacancia: 4.5% | Momentum: -14.9%,29.8579,-95.3032
75241,Dallas,TX,220240,Bajo Potencial,100.0,Crecimiento24: -0.2% | Crecimiento25: -1.1% | Vacancia: 2.8% | Momentum: -17.7%,32.6722,-96.7774
78238,San Antonio,TX,225171,Bajo Potencial,100.0,Crecimiento24: -1.6% | Crecimiento25: -2.0% | Vacancia: 4.4% | Momentum: -14.1%,29.451,-98.6169
76712,Woodway,TX,347279,Bajo Potencial,100.0,Crecimiento24: -0.1% | Crecimiento25: -0.1% | Vacancia: 2.8% | Momentum: -14.9%,31.5051,-97.2311
76049,Granbury,TX,407806,Bajo Potencial,100.0,Crecimiento24: -2.1% | Crecimiento25: 0.8% | Vacancia: 3.9% | Momentum: -15.7%,32.4488,-97.7285
78617,Del Valle,TX,305159,Bajo Potencial,100.0,Crecimiento24: -9.1% | Crecimiento25: -5.2% | Vacancia: 1.7% | Momentum: -28.3%,30.1745,-97.6134
77532,Crosby,TX,268610,Bajo Potencial,100.0,Crecimiento24: -1.0% | Crecimiento25: 0.2% | Vacancia: 4.7% | Momentum: -12.5%,29.9249,-95.0578
77039,Houston,TX,189167,Bajo Potencial,100.0,Crecimiento24: -0.6% | Crecimiento25: -0.0% | Vacancia: 2.3% | Momentum: -14.8%,29.9067,-95.3334
75180,Balch Springs,TX,230832,Bajo Potencial,100.0,Crecimiento24: -1.1% | Crecimiento25: 0.0% | Vacancia: 3.2% | Momentum: -16.0%,32.7287,-96.6228
78737,Austin,TX,795053,Bajo Potencial,100.0,Crecimiento24: -5.3% | Crecimiento25: -1.6% | Vacancia: 1.2% | Momentum: -24.2%,30.2107,-97.9427
78727,Austin,TX,471237,Bajo Potencial,100.0,Crecimiento24: -5.9% | Crecimiento25: -2.9% | Vacancia: 2.4% | Momentum: -18.4%,30.4254,-97.7195
76209,Denton,TX,304015,Bajo Potencial,100.0,Crecimiento24: -0.3% | Crecimiento25: 0.5% | Vacancia: 2.6% | Momentum: -15.5%,33.2346,-97.1131
75503,Texarkana,TX,249486,Bajo Potencial,100.0,Crecimiento24: 1.5% | Crecimiento25: -0.6% | Vacancia: 3.2% | Momentum: -10.4%,33.4669,-94.0774
78746,West Lake Hills,TX,1666366,Bajo Potencial,100.0,Crecimiento24: -5.1% | Crecimiento25: -3.3% | Vacancia: 3.2% | Momentum: -29.5%,30.2971,-97.8181
78757,Austin,TX,616974,Bajo Potencial,100.0,Crecimiento24: -8.5% | Crecimiento25: -3.8% | Vacancia: 2.5% | Momentum: -20.5%,30.3437,-97.7316
78728,Austin,TX,426595,Bajo Potencial,100.0,Crecimiento24: -5.8% | Crecimiento25: -3.5% | Vacancia: 3.5% | Momentum: -21.3%,30.4417,-97.6811
78633,Georgetown,TX,456327,Bajo Potencial,100.0,Crecimiento24: -6.3% | Crecimiento25: -3.3% | Vacancia: 1.5% | Momentum: -21.8%,30.7177,-97.7543
78222,San Antonio,TX,220719,Bajo Potencial,100.0,Crecimiento24: -3.8% | Crecimiento25: -1.4% | Vacancia: 3.9% | Momentum: -16.1%,29.3831,-98.396
77385,Conroe,TX,348775,Bajo Potencial,100.0,Crecimiento24: -1.9% | Crecimiento25: -0.4% | Vacancia: 2.4% | Momentum: -15.4%,30.1877,-95.4288
78731,Austin,TX,1001739,Bajo Potencial,100.0,Crecimiento24: -5.4% | Crecimiento25: -2.4% | Vacancia: 2.9% | Momentum: -21.4%,30.3471,-97.7609
76528,Gatesville,TX,236846,Bajo Potencial,100.0,Crecimiento24: -4.2% | Crecimiento25: 0.4% | Vacancia: 4.0% | Momentum: -16.6%,31.4177,-97.833
75254,Dallas,TX,310042,Bajo Potencial,100.0,Crecimiento24: -0.6% | Crecimiento25: -5.7% | Vacancia: 7.8% | Momentum: -16.2%,32.9503,-96.819
75212,Dallas,TX,251847,Bajo Potencial,100.0,Crecimiento24: -0.4% | Crecimiento25: 0.2% | Vacancia: 1.9% | Momentum: -15.5%,32.7829,-96.8714
78754,Austin,TX,381926,Bajo Potencial,100.0,Crecimiento24: -7.6% | Crecimiento25: -4.1% | Vacancia: 1.8% | Momentum: -25.9%,30.3423,-97.6673
75482,Sulphur Springs,TX,247887,Bajo Potencial,100.0,Crecimiento24: -4.3% | Crecimiento25: -4.2% | Vacancia: 4.6% | Momentum: -15.8%,33.1345,-95.5922
75159,Seagoville,TX,286335,Bajo Potencial,100.0,Crecimiento24: -1.6% | Crecimiento25: -0.3% | Vacancia: 2.3% | Momentum: -18.3%,32.6525,-96.558
78259,San Antonio,TX,404658,Bajo Potencial,100.0,Crecimiento24: -0.6% | Crecimiento25: -0.1% | Vacancia: 1.9% | Momentum: -15.2%,29.6283,-98.4445
76148,Watauga,TX,273526,Bajo Potencial,100.0,Crecimiento24: 0.6% | Crecimiento25: -1.2% | Vacancia: 1.3% | Momentum: -15.5%,32.8621,-97.2508
78702,Austin,TX,591141,Bajo Potencial,100.0,Crecimiento24: -9.4% | Crecimiento25: -7.8% | Vacancia: 4.8% | Momentum: -23.9%,30.2638,-97.7166
78644,Lockhart,TX,299799,Bajo Potencial,100.0,Crecimiento24: -5.2% | Crecimiento25: -3.5% | Vacancia: 2.9% | Momentum: -24.7%,29.8868,-97.6769
75407,Princeton,TX,325640,Bajo Potencial,100.0,Crecimiento24: -5.1% | Crecimiento25: -3.2% | Vacancia: 1.8% | Momentum: -22.9%,33.1555,-96.4981
78738,,TX,871322,Bajo Potencial,100.0,Crecimiento24: -7.4% | Crecimiento25: -3.7% | Vacancia: 2.0% | Momentum: -27.6%,30.3337,-97.9824
76052,Haslet,TX,407868,Bajo Potencial,100.0,Crecimiento24: -5.3% | Crecimiento25: -1.1% | Vacancia: 0.7% | Momentum: -19.1%,32.9557,-97.3372
76504,Temple,TX,194400,Bajo Potencial,100.0,Crecimiento24: -3.3% | Crecimiento25: 0.4% | Vacancia: 3.6% | Momentum: -18.1%,31.0917,-97.3648
75090,Sherman,TX,222625,Bajo Potencial,100.0,Crecimiento24: -0.4% | Crecimiento25: 0.5% | Vacancia: 3.4% | Momentum: -16.3%,33.6435,-96.6075
75253,Dallas,TX,266027,Bajo Potencial,100.0,Crecimiento24: -0.8% | Crecimiento25: -1.2% | Vacancia: 1.7% | Momentum: -18.8%,32.6833,-96.5964
78261,San Antonio,TX,447053,Bajo Potencial,100.0,Crecimiento24: -2.0% | Crecimiento25: -0.5% | Vacancia: 1.1% | Momentum: -16.5%,29.7055,-98.4191
79413,Lubbock,TX,191493,Bajo Potencial,100.0,Crecimiento24: -0.3% | Crecimiento25: -0.9% | Vacancia: 3.0% | Momentum: -12.2%,33.5466,-101.8871
75409,Anna,TX,369771,Bajo Potencial,100.0,Crecimiento24: -4.2% | Crecimiento25: -1.6% | Vacancia: 2.0% | Momentum: -22.3%,33.3445,-96.5639
76135,Fort Worth,TX,281672,Bajo Potencial,100.0,Crecimiento24: -0.8% | Crecimiento25: -1.2% | Vacancia: 2.8% | Momentum: -17.0%,32.8248,-97.4519
78703,Austin,TX,1292595,Bajo Potencial,100.0,Crecimiento24: -6.7% | Crecimiento25: -5.2% | Vacancia: 3.3% | Momentum: -25.1%,30.2907,-97.7648
75460,Paris,TX,127216,Bajo Potencial,100.0,Crecimiento24: -8.5% | Crecimiento25: 0.4% | Vacancia: 5.9% | Momentum: -15.5%,33.6581,-95.5379
78621,,TX,312803,Bajo Potencial,100.0,Crecimiento24: -8.6% | Crecimiento25: -3.3% | Vacancia: 2.8% | Momentum: -26.2%,30.3231,-97.3737
78214,San Antonio,TX,137535,Bajo Potencial,100.0,Crecimiento24: -8.0% | Crecimiento25: -4.6% | Vacancia: 3.2% | Momentum: -12.5%,29.3641,-98.4924
75134,Lancaster,TX,273514,Bajo Potencial,100.0,Crecimiento24: -0.1% | Crecimiento25: -1.2% | Vacancia: 0.6% | Momentum: -18.1%,32.6161,-96.783
78224,San Antonio,TX,203721,Bajo Potencial,100.0,Crecimiento24: -6.4% | Crecimiento25: -1.0% | Vacancia: 2.9% | Momentum: -13.9%,29.3374,-98.5393
75237,Dallas,TX,273642,Bajo Potencial,100.0,Crecimiento24: -0.0% | Crecimiento25: -1.6% | Vacancia: 5.0% | Momentum: -17.2%,32.659,-96.8765
78734,Lakeway,TX,638378,Bajo Potencial,100.0,Crecimiento24: -7.0% | Crecimiento25: -5.3% | Vacancia: 5.0% | Momentum: -24.4%,30.3705,-97.9427
75142,Kaufman,TX,291021,Bajo Potencial,100.0,Crecimiento24: -3.2% | Crecimiento25: 0.2% | Vacancia: 2.7% | Momentum: -16.4%,32.546,-96.2852
78015,Fair Oaks Ranch,TX,594328,Bajo Potencial,100.0,Crecimiento24: -1.8% | Crecimiento25: 0.1% | Vacancia: 1.6% | Momentum: -16.2%,29.7327,-98.6646
77028,Houston,TX,166743,Bajo Potencial,100.0,Crecimiento24: -4.9% | Crecimiento25: -0.1% | Vacancia: 5.0% | Momentum: -15.1%,29.8297,-95.2879
76177,,TX,384010,Bajo Potencial,100.0,Crecimiento24: -3.9% | Crecimiento25: -1.0% | Vacancia: 3.5% | Momentum: -19.1%,32.9448,-97.3124
77551,Galveston,TX,265126,Bajo Potencial,100.0,Crecimiento24: 0.9% | Crecimiento25: -4.2% | Vacancia: 8.9% | Momentum: -19.3%,29.2766,-94.8303
78133,Canyon Lake,TX,398405,Bajo Potencial,100.0,Crecimiento24: -3.1% | Crecimiento25: -2.5% | Vacancia: 8.8% | Momentum: -21.1%,29.9112,-98.2374
78747,Austin,TX,390789,Bajo Potencial,100.0,Crecimiento24: -6.9% | Crecimiento25: -5.2% | Vacancia: 1.2% | Momentum: -25.5%,30.1204,-97.7433
76541,Killeen,TX,124762,Bajo Potencial,100.0,Crecimiento24: -5.0% | Crecimiento25: 0.6% | Vacancia: 9.4% | Momentum: -22.2%,31.1164,-97.7278
78732,Austin,TX,823945,Bajo Potencial,100.0,Crecimiento24: -6.9% | Crecimiento25: -3.4% | Vacancia: 1.5% | Momentum: -27.6%,30.3752,-97.9007
76266,Sanger,TX,364646,Bajo Potencial,100.0,Crecimiento24: -1.1% | Crecimiento25: 0.1% | Vacancia: 1.8% | Momentum: -15.7%,33.3563,-97.1814
75137,Duncanville,TX,286981,Bajo Potencial,100.0,Crecimiento24: 0.3% | Crecimiento25: -0.5% | Vacancia: 2.0% | Momentum: -15.3%,32.6347,-96.9113
76574,Taylor,TX,297699,Bajo Potencial,100.0,Crecimiento24: -5.5% | Crecimiento25: -2.5% | Vacancia: 3.3% | Momentum: -23.2%,30.5708,-97.4094
78620,Dripping Springs,TX,698342,Bajo Potencial,100.0,Crecimiento24: -6.0% | Crecimiento25: -3.2% | Vacancia: 1.9% | Momentum: -25.1%,30.2268,-98.1029
76103,Fort Worth,TX,223124,Bajo Potencial,100.0,Crecimiento24: -0.2% | Crecimiento25: -0.4% | Vacancia: 3.7% | Momentum: -15.1%,32.747,-97.2604
78654,Marble Falls,TX,426955,Bajo Potencial,100.0,Crecimiento24: -5.4% | Crecimiento25: -1.5% | Vacancia: 9.3% | Momentum: -21.3%,30.5784,-98.2751
78735,,TX,836415,Bajo Potencial,100.0,Crecimiento24: -6.1% | Crecimiento25: -0.9% | Vacancia: 2.8% | Momentum: -20.0%,30.249,-97.8414
78752,Austin,TX,419151,Bajo Potencial,100.0,Crecimiento24: -10.0% | Crecimiento25: -5.1% | Vacancia: 2.2% | Momentum: -21.4%,30.3316,-97.7004
75249,Dallas,TX,295994,Bajo Potencial,100.0,Crecimiento24: 0.1% | Crecimiento25: -1.3% | Vacancia: 0.7% | Momentum: -16.1%,32.636,-96.9493
77447,Hockley,TX,311134,Bajo Potencial,100.0,Crecimiento24: -2.9% | Crecimiento25: 0.2% | Vacancia: 2.5% | Momentum: -14.3%,30.0729,-95.8104
76501,Temple,TX,195890,Bajo Potencial,100.0,Crecimiento24: -3.3% | Crecimiento25: -1.5% | Vacancia: 4.7% | Momentum: -19.0%,31.0895,-97.3343
78219,San Antonio,TX,176617,Bajo Potencial,100.0,Crecimiento24: -2.1% | Crecimiento25: -1.2% | Vacancia: 3.8% | Momentum: -12.7%,29.4492,-98.3446
75474,,TX,245710,Bajo Potencial,100.0,Crecimiento24: -0.5% | Crecimiento25: 0.7% | Vacancia: 5.6% | Momentum: -15.1%,32.8983,-96.1261
76086,Weatherford,TX,277768,Bajo Potencial,100.0,Crecimiento24: 0.0% | Crecimiento25: -1.2% | Vacancia: 4.3% | Momentum: -14.7%,32.7549,-97.7899
78676,Wimberley,TX,556654,Bajo Potencial,100.0,Crecimiento24: -6.3% | Crecimiento25: -1.5% | Vacancia: 5.2% | Momentum: -21.5%,30.0265,-98.1123
77587,South Houston,TX,197600,Bajo Potencial,100.0,Crecimiento24: -1.1% | Crecimiento25: -0.5% | Vacancia: 3.2% | Momentum: -15.0%,29.6601,-95.2258
76118,Fort Worth,TX,325750,Bajo Potencial,100.0,Crecimiento24: -0.1% | Crecimiento25: 0.0% | Vacancia: 3.1% | Momentum: -15.8%,32.8013,-97.1952
78220,San Antonio,TX,159891,Bajo Potencial,100.0,Crecimiento24: -5.4% | Crecimiento25: -3.7% | Vacancia: 4.0% | Momentum: -17.0%,29.4106,-98.4128
75402,Greenville,TX,276924,Bajo Potencial,100.0,Crecimiento24: -2.2% | Crecimiento25: -1.1% | Vacancia: 3.7% | Momentum: -17.3%,33.1047,-96.0927
79412,Lubbock,TX,123602,Bajo Potencial,100.0,Crecimiento24: -1.9% | Crecimiento25: -2.6% | Vacancia: 4.1% | Momentum: -14.1%,33.5463,-101.8577
75156,Payne Springs,TX,291057,Bajo Potencial,100.0,Crecimiento24: -4.9% | Crecimiento25: -0.5% | Vacancia: 14.4% | Momentum: -18.2%,32.2972,-96.1184
75143,,TX,279455,Bajo Potencial,100.0,Crecimiento24: -4.3% | Crecimiento25: 0.7% | Vacancia: 11.2% | Momentum: -17.7%,32.2486,-96.2161
78642,Liberty Hill,TX,508983,Bajo Potencial,100.0,Crecimiento24: -6.8% | Crecimiento25: -1.7% | Vacancia: 1.7% | Momentum: -25.6%,30.663,-97.9316
78163,Bulverde,TX,464018,Bajo Potencial,100.0,Crecimiento24: -3.7% | Crecimiento25: -1.7% | Vacancia: 2.5% | Momentum: -16.4%,29.7767,-98.4626
78751,Austin,TX,619192,Bajo Potencial,100.0,Crecimiento24: -6.2% | Crecimiento25: -4.1% | Vacancia: 4.1% | Momentum: -18.4%,30.3093,-97.7242
75203,Dallas,TX,208742,Bajo Potencial,100.0,Crecimiento24: -2.5% | Crecimiento25: -0.9% | Vacancia: 4.9% | Momentum: -18.6%,32.746,-96.807
76707,Waco,TX,145336,Bajo Potencial,100.0,Crecimiento24: -1.3% | Crecimiento25: -0.7% | Vacancia: 6.9% | Momentum: -16.5%,31.5527,-97.1588
75054,Grand Prairie,TX,497079,Bajo Potencial,100.0,Crecimiento24: -1.5% | Crecimiento25: 0.0% | Vacancia: 0.4% | Momentum: -16.9%,32.5907,-97.0405
78252,San Antonio,TX,248317,Bajo Potencial,100.0,Crecimiento24: -3.3% | Crecimiento25: -2.3% | Vacancia: 1.4% | Momentum: -17.8%,29.346,-98.6464
78264,San Antonio,TX,215389,Bajo Potencial,100.0,Crecimiento24: -7.3% | Crecimiento25: -3.1% | Vacancia: 4.8% | Momentum: -11.9%,29.1733,-98.4723
75951,Jasper,TX,166776,Bajo Potencial,100.0,Crecimiento24: -10.6% | Crecimiento25: -4.8% | Vacancia: 8.4% | Momentum: -14.6%,30.8673,-93.9977
75454,Melissa,TX,462362,Bajo Potencial,100.0,Crecimiento24: -1.9% | Crecimiento25: -1.1% | Vacancia: 1.0% | Momentum: -22.9%,33.2841,-96.574
78225,San Antonio,TX,125318,Bajo Potencial,100.0,Crecimiento24: -6.2% | Crecimiento25: -4.9% | Vacancia: 3.0% | Momentum: -12.4%,29.3875,-98.5245
78726,Austin,TX,726643,Bajo Potencial,100.0,Crecimiento24: -4.7% | Crecimiento25: -1.2% | Vacancia: 1.0% | Momentum: -22.1%,30.43,-97.8326
78611,Burnet,TX,418587,Bajo Potencial,100.0,Crecimiento24: -6.5% | Crecimiento25: -1.0% | Vacancia: 12.7% | Momentum: -23.4%,30.7766,-98.2642
78669,Spicewood,TX,738636,Bajo Potencial,100.0,Crecimiento24: -6.5% | Crecimiento25: -2.7% | Vacancia: 10.8% | Momentum: -25.6%,30.3899,-98.0539
78204,San Antonio,TX,185703,Bajo Potencial,100.0,Crecimiento24: -6.3% | Crecimiento25: -7.3% | Vacancia: 9.7% | Momentum: -11.2%,29.4059,-98.5078
78733,Austin,TX,1158245,Bajo Potencial,100.0,Crecimiento24: -4.0% | Crecimiento25: -1.6% | Vacancia: 2.9% | Momentum: -24.4%,30.3314,-97.8666
78736,Austin,TX,615495,Bajo Potencial,100.0,Crecimiento24: -5.6% | Crecimiento25: -2.4% | Vacancia: 2.4% | Momentum: -19.5%,30.2444,-97.916
78387,Sinton,TX,149579,Bajo Potencial,100.0,Crecimiento24: -8.7% | Crecimiento25: -1.1% | Vacancia: 6.5% | Momentum: -7.1%,28.0339,-97.5196
78701,Austin,TX,702095,Bajo Potencial,100.0,Crecimiento24: -9.4% | Crecimiento25: -7.2% | Vacancia: 6.3% | Momentum: -21.9%,30.2713,-97.7426
75979,Woodville,TX,147264,Bajo Potencial,100.0,Crecimiento24: -6.9% | Crecimiento25: 1.5% | Vacancia: 11.8% | Momentum: -10.7%,30.7752,-94.4155
75551,Atlanta,TX,172636,Bajo Potencial,100.0,Crecimiento24: -6.4% | Crecimiento25: -1.5% | Vacancia: 5.8% | Momentum: -16.2%,33.109,-94.1646
78756,Austin,TX,712450,Bajo Potencial,100.0,Crecimiento24: -8.5% | Crecimiento25: -3.0% | Vacancia: 2.8% | Momentum: -20.4%,30.3223,-97.739
78202,San Antonio,TX,167858,Bajo Potencial,100.0,Crecimiento24: -9.1% | Crecimiento25: -6.6% | Vacancia: 10.0% | Momentum: -18.2%,29.4275,-98.4601
76537,Jarrell,TX,266418,Bajo Potencial,100.0,Crecimiento24: -10.6% | Crecimiento25: -5.6% | Vacancia: 1.5% | Momentum: -29.7%,30.8119,-97.5942
78721,Austin,TX,452069,Bajo Potencial,100.0,Crecimiento24: -7.0% | Crecimiento25: -6.0% | Vacancia: 3.3% | Momentum: -21.3%,30.2721,-97.6868
79364,,TX,130315,Bajo Potencial,100.0,Crecimiento24: -2.1% | Crecimiento25: -0.4% | Vacancia: 5.2% | Momentum: -9.5%,33.4373,-101.6435
78730,Austin,TX,1121168,Bajo Potencial,100.0,Crecimiento24: -5.5% | Crecimiento25: -2.0% | Vacancia: 3.0% | Momentum: -24.6%,30.3607,-97.8241
78112,Elmendorf,TX,232485,Bajo Potencial,100.0,Crecimiento24: -4.9% | Crecimiento25: -0.3% | Vacancia: 1.7% | Momentum: -11.6%,29.2308,-98.372
75114,Crandall,TX,270084,Bajo Potencial,100.0,Crecimiento24: -2.9% | Crecimiento25: -5.4% | Vacancia: 1.4% | Momentum: -20.7%,32.6279,-96.4558
78834,Carrizo Springs,TX,137790,Bajo Potencial,100.0,Crecimiento24: -2.2% | Crecimiento25: -2.1% | Vacancia: 9.7% | Momentum: -4.2%,28.5278,-99.8635
76571,Salado,TX,526805,Bajo Potencial,100.0,Crecimiento24: -2.2% | Crecimiento25: 0.3% | Vacancia: 1.7% | Momentum: -19.3%,30.9494,-97.533
76655,Lorena,TX,346542,Bajo Potencial,100.0,Crecimiento24: -0.5% | Crecimiento25: -0.1% | Vacancia: 1.7% | Momentum: -16.8%,31.4093,-97.2302
75135,Caddo Mills,TX,332333,Bajo Potencial,100.0,Crecimiento24: -3.0% | Crecimiento25: -0.1% | Vacancia: 1.8% | Momentum: -16.6%,33.0683,-96.2391
78639,Kingsland,TX,452921,Bajo Potencial,100.0,Crecimiento24: -6.8% | Crecimiento25: -2.5% | Vacancia: 18.2% | Momentum: -23.7%,30.6662,-98.4475
78648,Luling,TX,235232,Bajo Potencial,100.0,Crecimiento24: -6.0% | Crecimiento25: -2.2% | Vacancia: 3.6% | Momentum: -19.0%,29.6826,-97.6499
76060,Kennedale,TX,389610,Bajo Potencial,100.0,Crecimiento24: -0.8% | Crecimiento25: 0.2% | Vacancia: 2.9% | Momentum: -15.0%,32.6432,-97.2139
76661,Marlin,TX,101339,Bajo Potencial,100.0,Crecimiento24: -9.5% | Crecimiento25: -3.3% | Vacancia: 10.5% | Momentum: -11.0%,31.3036,-96.8889
78605,Bertram,TX,444953,Bajo Potencial,100.0,Crecimiento24: -2.9% | Crecimiento25: -1.4% | Vacancia: 3.2% | Momentum: -21.9%,30.7411,-98.0529
79411,Lubbock,TX,102859,Bajo Potencial,100.0,Crecimiento24: -1.2% | Crecimiento25: -2.9% | Vacancia: 9.1% | Momentum: -15.4%,33.5704,-101.8626
78226,San Antonio,TX,142505,Bajo Potencial,100.0,Crecimiento24: -5.0% | Crecimiento25: -5.1% | Vacancia: 10.5% | Momentum: -15.1%,29.393,-98.5511
76579,Troy,TX,266613,Bajo Potencial,100.0,Crecimiento24: -2.1% | Crecimiento25: -1.5% | Vacancia: 3.2% | Momentum: -18.5%,31.1759,-97.2852
76825,Brady,TX,127144,Bajo Potencial,100.0,Crecimiento24: -9.7% | Crecimiento25: -7.2% | Vacancia: 12.4% | Momentum: -20.9%,31.1509,-99.3372
78722,Austin,TX,593603,Bajo Potencial,100.0,Crecimiento24: -7.8% | Crecimiento25: -3.4% | Vacancia: 1.4% | Momentum: -19.1%,30.2893,-97.715
79088,Tulia,TX,95921,Bajo Potencial,100.0,Crecimiento24: -10.4% | Crecimiento25: -3.6% | Vacancia: 7.4% | Momentum: -17.3%,34.5583,-101.8039
75559,De Kalb,TX,205871,Bajo Potencial,100.0,Crecimiento24: -3.4% | Crecimiento25: -5.8% | Vacancia: 11.3% | Momentum: -14.7%,33.5087,-94.6163
78052,Lytle,TX,281646,Bajo Potencial,100.0,Crecimiento24: -6.4% | Crecimiento25: -1.9% | Vacancia: 5.9% | Momentum: -13.7%,29.2366,-98.7945
78619,Driftwood,TX,944065,Bajo Potencial,100.0,Crecimiento24: -5.1% | Crecimiento25: -1.5% | Vacancia: 0.9% | Momentum: -26.8%,30.1072,-98.0327
76559,Nolanville,TX,310340,Bajo Potencial,100.0,Crecimiento24: -1.5% | Crecimiento25: -0.3% | Vacancia: 3.1% | Momentum: -17.6%,31.0833,-97.5941
78164,Yorktown,TX,214600,Bajo Potencial,100.0,Crecimiento24: -3.8% | Crecimiento25: -7.4% | Vacancia: 15.4% | Momentum: -9.9%,28.9892,-97.5121
78208,San Antonio,TX,179318,Bajo Potencial,100.0,Crecimiento24: -5.0% | Crecimiento25: -7.8% | Vacancia: 11.1% | Momentum: -15.2%,29.44,-98.459
75166,Lavon,TX,377376,Bajo Potencial,100.0,Crecimiento24: -4.9% | Crecimiento25: -3.4% | Vacancia: 0.0% | Momentum: -21.9%,33.0139,-96.4377
75426,Clarksville,TX,123596,Bajo Potencial,100.0,Crecimiento24: -10.4% | Crecimiento25: -2.8% | Vacancia: 12.4% | Momentum: -12.4%,33.6236,-95.0461
76950,Sonora,TX,172742,Bajo Potencial,100.0,Crecimiento24: -7.9% | Crecimiento25: 0.6% | Vacancia: 16.0% | Momentum: -7.5%,30.5558,-100.6307
79521,Haskell,TX,98154,Bajo Potencial,100.0,Crecimiento24: -4.2% | Crecimiento25: -8.0% | Vacancia: 18.8% | Momentum: -16.2%,33.158,-99.7309
76071,Newark,TX,313918,Bajo Potencial,100.0,Crecimiento24: -2.0% | Crecimiento25: -1.4% | Vacancia: 3.2% | Momentum: -16.2%,33.007,-97.4923
75569,Nash,TX,158823,Bajo Potencial,100.0,Crecimiento24: -2.4% | Crecimiento25: -5.0% | Vacancia: 3.3% | Momentum: -12.4%,33.4344,-94.1219
76430,Albany,TX,174690,Bajo Potencial,100.0,Crecimiento24: -9.4% | Crecimiento25: -2.1% | Vacancia: 6.3% | Momentum: -14.2%,32.719,-99.3196
75163,Trinidad,TX,328664,Bajo Potencial,100.0,Crecimiento24: -2.0% | Crecimiento25: -2.0% | Vacancia: 19.0% | Momentum: -18.4%,32.1383,-96.0831
75643,,TX,192442,Bajo Potencial,100.0,Crecimiento24: -8.7% | Crecimiento25: -0.9% | Vacancia: 17.3% | Momentum: -12.4%,32.0334,-94.38
76265,Saint Jo,TX,266655,Bajo Potencial,100.0,Crecimiento24: -12.6% | Crecimiento25: -3.1% | Vacancia: 13.5% | Momentum: -21.4%,33.744,-97.5568
76475,Strawn,TX,320274,Bajo Potencial,100.0,Crecimiento24: -6.0% | Crecimiento25: -2.4% | Vacancia: 37.0% | Momentum: -16.8%,32.5945,-98.4995
78656,Maxwell,TX,278533,Bajo Potencial,100.0,Crecimiento24: -7.6% | Crecimiento25: -5.2% | Vacancia: 0.4% | Momentum: -23.0%,29.8953,-97.8144
76554,Little River Academy,TX,214648,Bajo Potencial,100.0,Crecimiento24: -1.1% | Crecimiento25: -0.8% | Vacancia: 4.2% | Momentum: -16.8%,30.9863,-97.3586
75929,Broaddus,TX,200371,Bajo Potencial,100.0,Crecimiento24: -12.0% | Crecimiento25: -3.8% | Vacancia: 48.7% | Momentum: -13.2%,31.2952,-94.2156
78623,Blanco,TX,498153,Bajo Potencial,100.0,Crecimiento24: -2.1% | Crecimiento25: -0.4% | Vacancia: 5.3% | Momentum: -19.4%,29.9627,-98.2088
75040,Garland,TX,291280,Bajo Potencial,99.9,Crecimiento24: 1.1% | Crecimiento25: 0.1% | Vacancia: 1.7% | Momentum: -15.7%,32.9227,-96.6248
75043,Garland,TX,301537,Bajo Potencial,99.9,Crecimiento24: 1.1% | Crecimiento25: -0.8% | Vacancia: 2.3% | Momentum: -15.4%,32.8565,-96.5999
75227,Dallas,TX,237963,Bajo Potencial,99.9,Crecimiento24: 0.3% | Crecimiento25: 0.3% | Vacancia: 2.3% | Momentum: -14.7%,32.7672,-96.6836
75044,Garland,TX,352774,Bajo Potencial,99.9,Crecimiento24: 1.0% | Crecimiento25: -0.8% | Vacancia: 1.1% | Momentum: -14.8%,32.9522,-96.6654
78414,Corpus Christi,TX,309616,Bajo Potencial,99.9,Crecimiento24: -1.6% | Crecimiento25: -0.1% | Vacancia: 2.7% | Momentum: -10.4%,27.677,-97.365
77571,La Porte,TX,255962,Bajo Potencial,99.9,Crecimiento24: 0.4% | Crecimiento25: 0.3% | Vacancia: 1.6% | Momentum: -10.3%,29.6884,-95.0513
75089,Rowlett,TX,392314,Bajo Potencial,99.9,Crecimiento24: 0.3% | Crecimiento25: -1.0% | Vacancia: 1.6% | Momentum: -18.2%,32.9346,-96.5544
76014,Arlington,TX,261957,Bajo Potencial,99.9,Crecimiento24: 0.4% | Crecimiento25: -0.2% | Vacancia: 1.6% | Momentum: -15.6%,32.6954,-97.0876
75036,Frisco,TX,583140,Bajo Potencial,99.9,Crecimiento24: 0.8% | Crecimiento25: -1.3% | Vacancia: 0.5% | Momentum: -20.4%,33.1499,-96.8241
76018,Arlington,TX,295666,Bajo Potencial,99.9,Crecimiento24: -0.5% | Crecimiento25: -0.8% | Vacancia: 1.1% | Momentum: -16.8%,32.6548,-97.092
78212,San Antonio,TX,282603,Bajo Potencial,99.9,Crecimiento24: -3.6% | Crecimiento25: -3.2% | Vacancia: 7.6% | Momentum: -10.6%,29.4388,-98.4935
75048,Sachse,TX,453532,Bajo Potencial,99.9,Crecimiento24: 0.8% | Crecimiento25: 0.0% | Vacancia: 0.3% | Momentum: -17.6%,32.9643,-96.6012
76104,Fort Worth,TX,188865,Bajo Potencial,99.9,Crecimiento24: -2.0% | Crecimiento25: 1.6% | Vacancia: 8.5% | Momentum: -15.4%,32.7256,-97.3184
77085,Houston,TX,235011,Bajo Potencial,99.9,Crecimiento24: 0.2% | Crecimiento25: 0.0% | Vacancia: 1.1% | Momentum: -14.8%,29.6218,-95.4819
76015,Arlington,TX,283450,Bajo Potencial,99.9,Crecimiento24: 0.4% | Crecimiento25: -0.1% | Vacancia: 2.8% | Momentum: -15.1%,32.6931,-97.1347
75442,Farmersville,TX,364309,Bajo Potencial,99.9,Crecimiento24: -1.4% | Crecimiento25: 1.1% | Vacancia: 2.6% | Momentum: -16.2%,33.1659,-96.3686
75633,Carthage,TX,189530,Bajo Potencial,99.9,Crecimiento24: -2.2% | Crecimiento25: -0.4% | Vacancia: 10.2% | Momentum: -8.0%,32.1544,-94.3527
79772,Pecos,TX,172515,Bajo Potencial,99.9,Crecimiento24: -26.2% | Crecimiento25: -5.5% | Vacancia: 6.6% | Momentum: -15.1%,31.4467,-103.5791
78076,Zapata,TX,140353,Bajo Potencial,99.9,Crecimiento24: -10.5% | Crecimiento25: -0.5% | Vacancia: 10.1% | Momentum: -4.2%,26.8897,-99.2506
79556,Sweetwater,TX,107965,Bajo Potencial,99.9,Crecimiento24: -9.7% | Crecimiento25: -4.3% | Vacancia: 9.4% | Momentum: -6.1%,32.4726,-100.3979
78390,Taft,TX,143331,Bajo Potencial,99.9,Crecimiento24: -7.3% | Crecimiento25: -8.3% | Vacancia: 10.4% | Momentum: -3.6%,27.9765,-97.3966
76567,Rockdale,TX,243609,Bajo Potencial,99.9,Crecimiento24: -1.7% | Crecimiento25: 0.7% | Vacancia: 5.9% | Momentum: -15.7%,30.6583,-97.0079
76424,Breckenridge,TX,142038,Bajo Potencial,99.9,Crecimiento24: -17.9% | Crecimiento25: -5.8% | Vacancia: 10.9% | Momentum: -22.1%,32.7532,-98.9099
77879,Somerville,TX,205495,Bajo Potencial,99.9,Crecimiento24: -6.7% | Crecimiento25: 0.2% | Vacancia: 17.2% | Momentum: -7.7%,30.4076,-96.5358
76821,Ballinger,TX,137161,Bajo Potencial,99.9,Crecimiento24: -3.3% | Crecimiento25: -1.7% | Vacancia: 9.9% | Momentum: -7.1%,31.7468,-99.9589
79731,Crane,TX,188494,Bajo Potencial,99.9,Crecimiento24: -2.6% | Crecimiento25: -2.5% | Vacancia: 3.1% | Momentum: -8.6%,31.3969,-102.3544
77984,Shiner,TX,303337,Bajo Potencial,99.9,Crecimiento24: -2.4% | Crecimiento25: 1.5% | Vacancia: 9.5% | Momentum: -14.2%,29.428,-97.164
79373,Tahoka,TX,146492,Bajo Potencial,99.9,Crecimiento24: -7.6% | Crecimiento25: -4.6% | Vacancia: 8.1% | Momentum: -5.9%,33.1988,-101.822
79014,Canadian,TX,164039,Bajo Potencial,99.9,Crecimiento24: -10.6% | Crecimiento25: 1.8% | Vacancia: 9.3% | Momentum: -5.5%,35.9045,-100.3841
75417,Bogata,TX,179446,Bajo Potencial,99.9,Crecimiento24: -4.5% | Crecimiento25: -4.6% | Vacancia: 10.0% | Momentum: -12.9%,33.4699,-95.1937
75631,,TX,202477,Bajo Potencial,99.9,Crecimiento24: -6.6% | Crecimiento25: -0.6% | Vacancia: 8.1% | Momentum: -10.2%,32.2452,-94.4555
75554,Avery,TX,206385,Bajo Potencial,99.9,Crecimiento24: -4.8% | Crecimiento25: -1.9% | Vacancia: 9.0% | Momentum: -13.9%,33.5339,-94.7867
78207,San Antonio,TX,108598,Bajo Potencial,99.8,Crecimiento24: -5.5% | Crecimiento25: -4.3% | Vacancia: 3.8% | Momentum: -12.0%,29.4229,-98.526
78201,San Antonio,TX,182064,Bajo Potencial,99.8,Crecimiento24: -7.1% | Crecimiento25: -3.4% | Vacancia: 4.9% | Momentum: -12.3%,29.4711,-98.5356
77034,Houston,TX,223475,Bajo Potencial,99.8,Crecimiento24: 0.6% | Crecimiento25: -0.4% | Vacancia: 4.8% | Momentum: -12.5%,29.6364,-95.2216
77340,Huntsville,TX,276045,Bajo Potencial,99.8,Crecimiento24: -3.7% | Crecimiento25: 0.1% | Vacancia: 6.1% | Momentum: -12.8%,30.6448,-95.5798
76013,Pantego,TX,317221,Bajo Potencial,99.8,Crecimiento24: 0.3% | Crecimiento25: -0.2% | Vacancia: 3.0% | Momentum: -14.8%,32.7199,-97.1442
77357,New Caney,TX,268566,Bajo Potencial,99.8,Crecimiento24: -3.2% | Crecimiento25: -1.5% | Vacancia: 4.3% | Momentum: -14.0%,30.1579,-95.198
77327,Dayton,TX,210286,Bajo Potencial,99.8,Crecimiento24: -0.8% | Crecimiento25: -1.2% | Vacancia: 5.2% | Momentum: -8.3%,30.33,-95.0202
75088,,TX,371075,Bajo Potencial,99.8,Crecimiento24: 0.2% | Crecimiento25: -0.9% | Vacancia: 1.0% | Momentum: -17.5%,32.9031,-96.5472
77022,Houston,TX,220477,Bajo Potencial,99.8,Crecimiento24: 0.0% | Crecimiento25: 0.3% | Vacancia: 6.1% | Momentum: -10.4%,29.8299,-95.3769
77550,Galveston,TX,309421,Bajo Potencial,99.8,Crecimiento24: -1.5% | Crecimiento25: -4.7% | Vacancia: 17.9% | Momentum: -22.3%,29.2983,-94.793
77051,Houston,TX,193591,Bajo Potencial,99.8,Crecimiento24: -2.3% | Crecimiento25: -2.6% | Vacancia: 4.8% | Momentum: -13.5%,29.6579,-95.3688
76207,Denton,TX,370038,Bajo Potencial,99.8,Crecimiento24: -2.5% | Crecimiento25: -0.1% | Vacancia: 1.5% | Momentum: -17.1%,33.2285,-97.1813
77423,Pattison,TX,381262,Bajo Potencial,99.8,Crecimiento24: -0.8% | Crecimiento25: 0.4% | Vacancia: 3.2% | Momentum: -13.7%,29.8072,-95.9755
78255,San Antonio,TX,541284,Bajo Potencial,99.8,Crecimiento24: 0.1% | Crecimiento25: 0.5% | Vacancia: 1.7% | Momentum: -15.5%,29.6701,-98.6873
77306,Conroe,TX,232516,Bajo Potencial,99.8,Crecimiento24: -3.0% | Crecimiento25: -2.0% | Vacancia: 2.5% | Momentum: -14.9%,30.2277,-95.2851
78645,Lago Vista,TX,436896,Bajo Potencial,99.8,Crecimiento24: -8.7% | Crecimiento25: -4.3% | Vacancia: 6.6% | Momentum: -27.2%,30.449,-97.9669
76384,Vernon,TX,96256,Bajo Potencial,99.8,Crecimiento24: -4.5% | Crecimiento25: -5.8% | Vacancia: 8.8% | Momentum: -7.5%,34.1491,-99.303
76084,,TX,388426,Bajo Potencial,99.8,Crecimiento24: -3.4% | Crecimiento25: -1.2% | Vacancia: 1.3% | Momentum: -16.9%,32.433,-97.1087
78063,Pipe Creek,TX,322043,Bajo Potencial,99.8,Crecimiento24: -4.3% | Crecimiento25: -0.9% | Vacancia: 8.1% | Momentum: -15.0%,29.6796,-98.9484
78652,Austin,TX,487536,Bajo Potencial,99.8,Crecimiento24: -6.4% | Crecimiento25: -3.4% | Vacancia: 0.2% | Momentum: -22.7%,30.1238,-97.8393
79382,Wolfforth,TX,256664,Bajo Potencial,99.8,Crecimiento24: -0.6% | Crecimiento25: -1.0% | Vacancia: 2.1% | Momentum: -12.0%,33.5059,-102.0091
77554,Galveston,TX,572498,Bajo Potencial,99.8,Crecimiento24: -3.4% | Crecimiento25: -2.1% | Vacancia: 55.7% | Momentum: -21.9%,29.2243,-94.9637
78124,Marion,TX,354795,Bajo Potencial,99.8,Crecimiento24: -1.5% | Crecimiento25: -1.6% | Vacancia: 2.9% | Momentum: -13.3%,29.5683,-98.1517
79512,Colorado City,TX,95218,Bajo Potencial,99.8,Crecimiento24: -17.6% | Crecimiento25: 0.4% | Vacancia: 12.9% | Momentum: -11.5%,32.3987,-100.8609
78119,Kenedy,TX,177076,Bajo Potencial,99.8,Crecimiento24: -18.2% | Crecimiento25: -0.6% | Vacancia: 8.0% | Momentum: -5.1%,28.8046,-97.8456
77547,Galena Park,TX,167564,Bajo Potencial,99.8,Crecimiento24: -0.8% | Crecimiento25: -3.1% | Vacancia: 2.0% | Momentum: -13.5%,29.7392,-95.24
75972,San Augustine,TX,182785,Bajo Potencial,99.8,Crecimiento24: -12.7% | Crecimiento25: -4.4% | Vacancia: 15.7% | Momentum: -8.7%,31.5152,-94.1326
77565,Kemah,TX,380008,Bajo Potencial,99.8,Crecimiento24: -0.6% | Crecimiento25: 0.4% | Vacancia: 4.5% | Momentum: -11.2%,29.5236,-95.0276
78401,Corpus Christi,TX,105308,Bajo Potencial,99.8,Crecimiento24: -15.9% | Crecimiento25: -10.1% | Vacancia: 13.1% | Momentum: -11.9%,27.7941,-97.403
78022,George West,TX,252660,Bajo Potencial,99.8,Crecimiento24: -1.4% | Crecimiento25: -0.5% | Vacancia: 10.5% | Momentum: -2.3%,28.3204,-98.1162
78069,Somerset,TX,228086,Bajo Potencial,99.8,Crecimiento24: -3.8% | Crecimiento25: 0.2% | Vacancia: 4.0% | Momentum: -9.1%,29.2205,-98.6678
77871,Normangee,TX,311652,Bajo Potencial,99.8,Crecimiento24: -2.2% | Crecimiento25: 0.2% | Vacancia: 13.2% | Momentum: -13.8%,31.0705,-96.125
78373,Port Aransas,TX,555920,Bajo Potencial,99.8,Crecimiento24: -3.3% | Crecimiento25: -6.7% | Vacancia: 121.2% | Momentum: -33.5%,27.7707,-97.1051
77095,Houston,TX,333871,Bajo Potencial,99.7,Crecimiento24: 0.1% | Crecimiento25: 0.7% | Vacancia: 1.4% | Momentum: -14.7%,29.8941,-95.6481
77099,Houston,TX,220425,Bajo Potencial,99.7,Crecimiento24: 1.4% | Crecimiento25: 0.1% | Vacancia: 2.9% | Momentum: -14.5%,29.6709,-95.5866
79424,Lubbock,TX,288781,Bajo Potencial,99.7,Crecimiento24: 0.2% | Crecimiento25: -0.5% | Vacancia: 2.3% | Momentum: -10.9%,33.5159,-101.9344
77502,Pasadena,TX,212143,Bajo Potencial,99.7,Crecimiento24: 0.1% | Crecimiento25: -0.2% | Vacancia: 2.2% | Momentum: -11.1%,29.6789,-95.1982
77087,Houston,TX,189591,Bajo Potencial,99.7,Crecimiento24: -4.0% | Crecimiento25: -1.8% | Vacancia: 3.6% | Momentum: -15.2%,29.6876,-95.3011
79072,Plainview,TX,119999,Bajo Potencial,99.7,Crecimiento24: -5.7% | Crecimiento25: -1.2% | Vacancia: 6.8% | Momentum: -10.9%,34.1962,-101.7259
76208,Denton,TX,420489,Bajo Potencial,99.7,Crecimiento24: -1.6% | Crecimiento25: -0.1% | Vacancia: 2.4% | Momentum: -17.1%,33.2117,-97.0612
76111,Fort Worth,TX,224144,Bajo Potencial,99.7,Crecimiento24: -0.8% | Crecimiento25: 1.0% | Vacancia: 4.2% | Momentum: -14.7%,32.7824,-97.3003
79414,Lubbock,TX,153779,Bajo Potencial,99.7,Crecimiento24: -0.1% | Crecimiento25: -0.9% | Vacancia: 4.5% | Momentum: -11.9%,33.5497,-101.9187
76247,Justin,TX,418575,Bajo Potencial,99.7,Crecimiento24: -1.8% | Crecimiento25: -0.1% | Vacancia: 1.9% | Momentum: -18.0%,33.0734,-97.3093
77378,Willis,TX,245507,Bajo Potencial,99.7,Crecimiento24: -2.3% | Crecimiento25: -1.9% | Vacancia: 1.4% | Momentum: -13.4%,30.4441,-95.4506
75215,Dallas,TX,182764,Bajo Potencial,99.7,Crecimiento24: -3.4% | Crecimiento25: -3.3% | Vacancia: 5.4% | Momentum: -21.5%,32.7582,-96.7623
79401,Lubbock,TX,148483,Bajo Potencial,99.7,Crecimiento24: -3.2% | Crecimiento25: -1.5% | Vacancia: 11.5% | Momentum: -12.5%,33.5865,-101.8606
75140,Grand Saline,TX,234706,Bajo Potencial,99.7,Crecimiento24: -1.4% | Crecimiento25: 0.4% | Vacancia: 5.6% | Momentum: -10.7%,32.6635,-95.7064
78026,Jourdanton,TX,234683,Bajo Potencial,99.7,Crecimiento24: -3.7% | Crecimiento25: -1.5% | Vacancia: 6.2% | Momentum: -10.9%,28.903,-98.544
75228,Dallas,TX,291713,Bajo Potencial,99.6,Crecimiento24: 0.2% | Crecimiento25: -0.4% | Vacancia: 4.4% | Momentum: -13.4%,32.825,-96.6784
77082,Houston,TX,260670,Bajo Potencial,99.6,Crecimiento24: -0.0% | Crecimiento25: -0.6% | Vacancia: 3.3% | Momentum: -13.5%,29.7223,-95.6285
78228,San Antonio,TX,175380,Bajo Potencial,99.6,Crecimiento24: -5.8% | Crecimiento25: -2.3% | Vacancia: 3.8% | Momentum: -13.5%,29.4589,-98.5699
77042,Houston,TX,281312,Bajo Potencial,99.6,Crecimiento24: 1.0% | Crecimiento25: -1.1% | Vacancia: 5.3% | Momentum: -9.1%,29.7404,-95.5589
78216,San Antonio,TX,291059,Bajo Potencial,99.6,Crecimiento24: 1.1% | Crecimiento25: -1.5% | Vacancia: 6.0% | Momentum: -10.6%,29.5334,-98.4975
76706,Waco,TX,244566,Bajo Potencial,99.6,Crecimiento24: 0.8% | Crecimiento25: 0.1% | Vacancia: 5.2% | Momentum: -15.0%,31.5171,-97.1198
77049,Houston,TX,246633,Bajo Potencial,99.6,Crecimiento24: -0.2% | Crecimiento25: 0.0% | Vacancia: 1.7% | Momentum: -14.1%,29.8235,-95.1848
77304,Conroe,TX,332584,Bajo Potencial,99.6,Crecimiento24: -1.8% | Crecimiento25: -0.7% | Vacancia: 1.7% | Momentum: -13.9%,30.3217,-95.5285
76543,Killeen,TX,179932,Bajo Potencial,99.6,Crecimiento24: -0.6% | Crecimiento25: 0.0% | Vacancia: 5.3% | Momentum: -18.8%,31.1172,-97.6651
76110,Fort Worth,TX,217780,Bajo Potencial,99.6,Crecimiento24: -2.0% | Crecimiento25: -0.8% | Vacancia: 5.0% | Momentum: -13.8%,32.7065,-97.3375
76114,River Oaks,TX,234056,Bajo Potencial,99.6,Crecimiento24: 1.0% | Crecimiento25: -0.7% | Vacancia: 3.5% | Momentum: -14.2%,32.7796,-97.3928
77356,Montgomery,TX,366013,Bajo Potencial,99.6,Crecimiento24: -0.2% | Crecimiento25: -0.1% | Vacancia: 6.7% | Momentum: -15.7%,30.4411,-95.7097
75160,Terrell,TX,265576,Bajo Potencial,99.6,Crecimiento24: 0.0% | Crecimiento25: -0.4% | Vacancia: 1.7% | Momentum: -16.3%,32.7515,-96.2831
75116,Duncanville,TX,276940,Bajo Potencial,99.6,Crecimiento24: 1.1% | Crecimiento25: -0.0% | Vacancia: 2.4% | Momentum: -15.3%,32.6587,-96.9114
77026,Houston,TX,156987,Bajo Potencial,99.6,Crecimiento24: -1.9% | Crecimiento25: -4.0% | Vacancia: 7.4% | Momentum: -12.7%,29.7972,-95.3288
76520,Cameron,TX,227325,Bajo Potencial,99.6,Crecimiento24: -4.9% | Crecimiento25: 1.2% | Vacancia: 4.8% | Momentum: -10.8%,30.8527,-96.9766
76437,Cisco,TX,159596,Bajo Potencial,99.6,Crecimiento24: -5.0% | Crecimiento25: -5.0% | Vacancia: 8.3% | Momentum: -16.9%,32.38,-98.9865
76448,Eastland,TX,175259,Bajo Potencial,99.6,Crecimiento24: -2.6% | Crecimiento25: -3.5% | Vacancia: 15.1% | Momentum: -13.4%,32.3994,-98.8071
76259,Ponder,TX,381662,Bajo Potencial,99.6,Crecimiento24: -1.4% | Crecimiento25: 0.6% | Vacancia: 0.2% | Momentum: -16.1%,33.1774,-97.2848
77962,Ganado,TX,222792,Bajo Potencial,99.6,Crecimiento24: -4.5% | Crecimiento25: 1.7% | Vacancia: 7.2% | Momentum: -5.9%,29.0308,-96.5031
79311,Abernathy,TX,164614,Bajo Potencial,99.6,Crecimiento24: -1.5% | Crecimiento25: 0.2% | Vacancia: 4.7% | Momentum: -8.3%,33.85,-101.8611
75973,Shelbyville,TX,258334,Bajo Potencial,99.6,Crecimiento24: -5.9% | Crecimiento25: 1.8% | Vacancia: 16.2% | Momentum: -6.2%,31.7131,-93.9698
75846,,TX,297695,Bajo Potencial,99.6,Crecimiento24: -6.1% | Crecimiento25: 3.5% | Vacancia: 17.4% | Momentum: -12.3%,31.3739,-96.1918
76366,Holliday,TX,195547,Bajo Potencial,99.6,Crecimiento24: -3.5% | Crecimiento25: 1.0% | Vacancia: 6.0% | Momentum: -11.8%,33.8162,-98.6951
77975,Moulton,TX,232746,Bajo Potencial,99.6,Crecimiento24: -6.7% | Crecimiento25: -0.7% | Vacancia: 13.4% | Momentum: -14.5%,29.57,-97.1031
75555,Bivins,TX,187183,Bajo Potencial,99.6,Crecimiento24: -5.2% | Crecimiento25: 1.3% | Vacancia: 9.2% | Momentum: -12.6%,32.966,-94.1404
76671,Whitney,TX,210979,Bajo Potencial,99.6,Crecimiento24: -4.1% | Crecimiento25: 2.5% | Vacancia: 18.1% | Momentum: -17.2%,32.0195,-97.5608
77449,Katy,TX,278858,Bajo Potencial,99.5,Crecimiento24: -1.2% | Crecimiento25: 0.0% | Vacancia: 1.2% | Momentum: -17.2%,29.8323,-95.736
77084,Houston,TX,274553,Bajo Potencial,99.5,Crecimiento24: -0.7% | Crecimiento25: 0.1% | Vacancia: 2.6% | Momentum: -16.0%,29.844,-95.6623
